[
    {
        "imgSrc": "https://pbs.twimg.com/media/G-aQ9IHW4AA3PPN?format=jpg&name=small",
        "ciudad": "Vista Flores",
        "departamento": "Tunuyán",
        "provincia": "Mendoza",
        "newSrc": "/img/tweets/G-aQ9IHW4AA3PPN.jpg",
        "imgId": "G-aQ9IHW4AA3PPN",
        "lat": -33.650876,
        "lon": -69.15576
    },
    {
        "imgSrc": "https://pbs.twimg.com/media/G-Z2yvrW8AAZU7V?format=jpg&name=small",
        "ciudad": "Colonia Ensayo",
        "departamento": "Diamante",
        "provincia": "Entre Ríos",
        "newSrc": "/img/tweets/G-Z2yvrW8AAZU7V.jpg",
        "imgId": "G-Z2yvrW8AAZU7V",
        "lat": -31.865188,
        "lon": -60.57469
    },
    {
        "imgSrc": "https://pbs.twimg.com/media/G-ZayosWYAAFbDd?format=jpg&name=small",
        "ciudad": "Barrio Santa Teresita",
        "departamento": "Chicoana",
        "provincia": "Salta",
        "newSrc": "/img/tweets/G-ZayosWYAAFbDd.jpg",
        "imgId": "G-ZayosWYAAFbDd",
        "lat": -25.037119,
        "lon": -65.572163
    },
    {
        "imgSrc": "https://pbs.twimg.com/media/G-Y-V5vXAAA9CGw?format=jpg&name=small",
        "ciudad": "Bella Vista",
        "departamento": "Leales",
        "provincia": "Tucumán",
        "newSrc": "/img/tweets/G-Y-V5vXAAA9CGw.jpg",
        "imgId": "G-Y-V5vXAAA9CGw",
        "lat": -27.032792,
        "lon": -65.30709
    },
    {
        "imgSrc": "https://pbs.twimg.com/media/G-Z2yvrW8AAZU7V?format=jpg&name=small",
        "ciudad": "Colonia Ensayo",
        "departamento": "Diamante",
        "provincia": "Entre Ríos",
        "newSrc": "/img/tweets/G-Z2yvrW8AAZU7V.jpg",
        "imgId": "G-Z2yvrW8AAZU7V",
        "lat": -31.865188,
        "lon": -60.57469
    },
    {
        "imgSrc": "https://pbs.twimg.com/media/G-ZayosWYAAFbDd?format=jpg&name=small",
        "ciudad": "Barrio Santa Teresita",
        "departamento": "Chicoana",
        "provincia": "Salta",
        "newSrc": "/img/tweets/G-ZayosWYAAFbDd.jpg",
        "imgId": "G-ZayosWYAAFbDd",
        "lat": -25.037119,
        "lon": -65.572163
    },
    {
        "imgSrc": "https://pbs.twimg.com/media/G-Y-V5vXAAA9CGw?format=jpg&name=small",
        "ciudad": "Bella Vista",
        "departamento": "Leales",
        "provincia": "Tucumán",
        "newSrc": "/img/tweets/G-Y-V5vXAAA9CGw.jpg",
        "imgId": "G-Y-V5vXAAA9CGw",
        "lat": -27.032792,
        "lon": -65.30709
    },
    {
        "imgSrc": "https://pbs.twimg.com/media/G-YoKImaoAAWC-0?format=jpg&name=small",
        "ciudad": "Copo Quile",
        "departamento": "Rosario de la Frontera",
        "provincia": "Salta",
        "newSrc": "/img/tweets/G-YoKImaoAAWC-0.jpg",
        "imgId": "G-YoKImaoAAWC-0",
        "lat": -26.011265,
        "lon": -64.671151
    },
    {
        "imgSrc": "https://pbs.twimg.com/media/G-YHvhCXMAAsEmb?format=jpg&name=small",
        "ciudad": "Mari Menuco",
        "departamento": "Confluencia",
        "provincia": "Neuquén",
        "newSrc": "/img/tweets/G-YHvhCXMAAsEmb.jpg",
        "imgId": "G-YHvhCXMAAsEmb",
        "lat": -38.541358,
        "lon": -68.54517
    },
    {
        "imgSrc": "https://pbs.twimg.com/media/G-XtRnvWMAAUYLt?format=jpg&name=small",
        "ciudad": "El Quemado",
        "departamento": "San Pedro",
        "provincia": "Jujuy",
        "newSrc": "/img/tweets/G-XtRnvWMAAUYLt.jpg",
        "imgId": "G-XtRnvWMAAUYLt",
        "lat": -24.104591,
        "lon": -64.824025
    },
    {
        "imgSrc": "https://pbs.twimg.com/media/G-XSsmeXsAAy5Ci?format=jpg&name=small",
        "ciudad": "Las Costas",
        "departamento": "Capital",
        "provincia": "Salta",
        "newSrc": "/img/tweets/G-XSsmeXsAAy5Ci.jpg",
        "imgId": "G-XSsmeXsAAy5Ci",
        "lat": -24.772448,
        "lon": -65.492456
    },
    {
        "imgSrc": "https://pbs.twimg.com/media/G-W4vTDWgAA480s?format=jpg&name=small",
        "ciudad": "Isla del Cerrito",
        "departamento": "Bermejo",
        "provincia": "Chaco",
        "newSrc": "/img/tweets/G-W4vTDWgAA480s.jpg",
        "imgId": "G-W4vTDWgAA480s",
        "lat": -27.291499,
        "lon": -58.619429
    },
    {
        "imgSrc": "https://pbs.twimg.com/media/G-WcHovWYAAGsb7?format=jpg&name=small",
        "ciudad": "Río Cuarto",
        "departamento": "Río Cuarto",
        "provincia": "Córdoba",
        "newSrc": "/img/tweets/G-WcHovWYAAGsb7.jpg",
        "imgId": "G-WcHovWYAAGsb7",
        "lat": -33.123837,
        "lon": -64.349003
    },
    {
        "imgSrc": "https://pbs.twimg.com/media/G-Viq0uWwAAbDCx?format=jpg&name=small",
        "ciudad": "Colonia Bicha",
        "departamento": "Castellanos",
        "provincia": "Santa Fe",
        "newSrc": "/img/tweets/G-Viq0uWwAAbDCx.jpg",
        "imgId": "G-Viq0uWwAAbDCx",
        "lat": -30.85413,
        "lon": -61.849535
    },
    {
        "imgSrc": "https://pbs.twimg.com/media/G-VHLfNbgAAD2Lx?format=jpg&name=small",
        "ciudad": "Pilar",
        "departamento": "Pilar",
        "provincia": "Buenos Aires",
        "newSrc": "/img/tweets/G-VHLfNbgAAD2Lx.jpg",
        "imgId": "G-VHLfNbgAAD2Lx",
        "lat": -34.458697,
        "lon": -58.913968
    },
    {
        "imgSrc": "https://pbs.twimg.com/media/G-UtL1HaMAA90EP?format=jpg&name=small",
        "ciudad": "Enrique Carbó",
        "departamento": "Gualeguaychú",
        "provincia": "Entre Ríos",
        "newSrc": "/img/tweets/G-UtL1HaMAA90EP.jpg",
        "imgId": "G-UtL1HaMAA90EP",
        "lat": -33.145461,
        "lon": -59.208056
    },
    {
        "imgSrc": "https://pbs.twimg.com/media/G-T0s6AXUAATMu9?format=jpg&name=small",
        "ciudad": "Villa Parque Girado",
        "departamento": "Chascomús",
        "provincia": "Buenos Aires",
        "newSrc": "/img/tweets/G-T0s6AXUAATMu9.jpg",
        "imgId": "G-T0s6AXUAATMu9",
        "lat": -35.62685,
        "lon": -58.014629
    },
    {
        "imgSrc": "https://pbs.twimg.com/media/G-UR4aDb0AEPza3?format=jpg&name=small",
        "ciudad": "Moquehuá",
        "departamento": "Chivilcoy",
        "provincia": "Buenos Aires",
        "newSrc": "/img/tweets/G-UR4aDb0AEPza3.jpg",
        "imgId": "G-UR4aDb0AEPza3",
        "lat": -35.092209,
        "lon": -59.775711
    },
    {
        "imgSrc": "https://pbs.twimg.com/media/G-TeVxaWgAAPyuG?format=jpg&name=small",
        "ciudad": "Villa Valeria",
        "departamento": "General Roca",
        "provincia": "Córdoba",
        "newSrc": "/img/tweets/G-TeVxaWgAAPyuG.jpg",
        "imgId": "G-TeVxaWgAAPyuG",
        "lat": -34.341446,
        "lon": -64.920814
    },
    {
        "imgSrc": "https://pbs.twimg.com/media/G-S98uEXgAALzWR?format=jpg&name=small",
        "ciudad": "Villa Castelli",
        "departamento": "General Lamadrid",
        "provincia": "La Rioja",
        "newSrc": "/img/tweets/G-S98uEXgAALzWR.jpg",
        "imgId": "G-S98uEXgAALzWR",
        "lat": -29.020142,
        "lon": -68.229483
    },
    {
        "imgSrc": "https://pbs.twimg.com/media/G-Sjt3VXMAACilo?format=jpg&name=small",
        "ciudad": "Barrio El Milagro",
        "departamento": "El Carmen",
        "provincia": "Jujuy",
        "newSrc": "/img/tweets/G-Sjt3VXMAACilo.jpg",
        "imgId": "G-Sjt3VXMAACilo",
        "lat": -24.463444,
        "lon": -65.119204
    },
    {
        "imgSrc": "https://pbs.twimg.com/media/G-SIq5mWEAABgo9?format=jpg&name=small",
        "ciudad": "Gato Colorado",
        "departamento": "9 de Julio",
        "provincia": "Santa Fe",
        "newSrc": "/img/tweets/G-SIq5mWEAABgo9.jpg",
        "imgId": "G-SIq5mWEAABgo9",
        "lat": -28.02239,
        "lon": -61.186582
    },
    {
        "imgSrc": "https://pbs.twimg.com/media/G-RtmBvW8AAJdbO?format=jpg&name=small",
        "ciudad": "Guadalcazar",
        "departamento": "Bermejo",
        "provincia": "Formosa",
        "newSrc": "/img/tweets/G-RtmBvW8AAJdbO.jpg",
        "imgId": "G-RtmBvW8AAJdbO",
        "lat": -23.672948,
        "lon": -61.163608
    },
    {
        "imgSrc": "https://pbs.twimg.com/media/G-RdlCyXIAI1kf9?format=jpg&name=small",
        "ciudad": "Zanjitas",
        "departamento": "Juan Martín Pueyrredón",
        "provincia": "San Luis",
        "newSrc": "/img/tweets/G-RdlCyXIAI1kf9.jpg",
        "imgId": "G-RdlCyXIAI1kf9",
        "lat": -33.804981,
        "lon": -66.415049
    },
    {
        "imgSrc": "https://pbs.twimg.com/media/G-RL8GPWAAAgyvQ?format=jpg&name=small",
        "ciudad": "Abralaite",
        "departamento": "Cochinoca",
        "provincia": "Jujuy",
        "newSrc": "/img/tweets/G-RL8GPWAAAgyvQ.jpg",
        "imgId": "G-RL8GPWAAAgyvQ",
        "lat": -23.169147,
        "lon": -65.793878
    },
    {
        "imgSrc": "https://pbs.twimg.com/media/G-QZfQ8WUAA8B4f?format=jpg&name=small",
        "ciudad": "Gutemberg",
        "departamento": "Río Seco",
        "provincia": "Córdoba",
        "newSrc": "/img/tweets/G-QZfQ8WUAA8B4f.jpg",
        "imgId": "G-QZfQ8WUAA8B4f",
        "lat": -29.7209,
        "lon": -63.515153
    },
    {
        "imgSrc": "https://pbs.twimg.com/media/G-P-KWZbgAAND3U?format=jpg&name=small",
        "ciudad": "Lomas de Copello",
        "departamento": "La Plata",
        "provincia": "Buenos Aires",
        "newSrc": "/img/tweets/G-P-KWZbgAAND3U.jpg",
        "imgId": "G-P-KWZbgAAND3U",
        "lat": -34.951798,
        "lon": -57.841234
    },
    {
        "imgSrc": "https://pbs.twimg.com/media/G-Pkk4FWcAA2XYB?format=jpg&name=small",
        "ciudad": "Villa Unión",
        "departamento": "Mitre",
        "provincia": "Santiago del Estero",
        "newSrc": "/img/tweets/G-Pkk4FWcAA2XYB.jpg",
        "imgId": "G-Pkk4FWcAA2XYB",
        "lat": -29.413623,
        "lon": -62.790404
    },
    {
        "imgSrc": "https://pbs.twimg.com/media/G-OsigTXwAAegVO?format=jpg&name=small",
        "ciudad": "San Víctor",
        "departamento": "Feliciano",
        "provincia": "Entre Ríos",
        "newSrc": "/img/tweets/G-OsigTXwAAegVO.jpg",
        "imgId": "G-OsigTXwAAegVO",
        "lat": -30.48519,
        "lon": -59.028341
    },
    {
        "imgSrc": "https://pbs.twimg.com/media/G-PJC8kWQAE72CU?format=jpg&name=small",
        "ciudad": "Playa Magagna",
        "departamento": "Rawson",
        "provincia": "Chubut",
        "newSrc": "/img/tweets/G-PJC8kWQAE72CU.jpg",
        "imgId": "G-PJC8kWQAE72CU",
        "lat": -43.381948,
        "lon": -65.045502
    },
    {
        "imgSrc": "https://pbs.twimg.com/media/G-OX83BagAA_iBF?format=jpg&name=small",
        "ciudad": "Ojos de Agua",
        "departamento": "Ñorquinco",
        "provincia": "Río Negro",
        "newSrc": "/img/tweets/G-OX83BagAA_iBF.jpg",
        "imgId": "G-OX83BagAA_iBF",
        "lat": -41.556351,
        "lon": -69.869368
    },
    {
        "imgSrc": "https://pbs.twimg.com/media/G-N1gwjWMAAoMnO?format=jpg&name=small",
        "ciudad": "Villa del Dique",
        "departamento": "Calamuchita",
        "provincia": "Córdoba",
        "newSrc": "/img/tweets/G-N1gwjWMAAoMnO.jpg",
        "imgId": "G-N1gwjWMAAoMnO",
        "lat": -32.176351,
        "lon": -64.456938
    },
    {
        "imgSrc": "https://pbs.twimg.com/media/G-NAPaDWYAAyENc?format=jpg&name=small",
        "ciudad": "Ramón Biaus",
        "departamento": "Chivilcoy",
        "provincia": "Buenos Aires",
        "newSrc": "/img/tweets/G-NAPaDWYAAyENc.jpg",
        "imgId": "G-NAPaDWYAAyENc",
        "lat": -35.087206,
        "lon": -59.924373
    },
    {
        "imgSrc": "https://pbs.twimg.com/media/G-Mk6TNXcAId4QZ?format=jpg&name=small",
        "ciudad": "Campo Santo",
        "departamento": "General Güemes",
        "provincia": "Salta",
        "newSrc": "/img/tweets/G-Mk6TNXcAId4QZ.jpg",
        "imgId": "G-Mk6TNXcAId4QZ",
        "lat": -24.682967,
        "lon": -65.104945
    },
    {
        "imgSrc": "https://pbs.twimg.com/media/G-MVWyEW4AAWbEO?format=jpg&name=small",
        "ciudad": "Hasse",
        "departamento": "Moreno",
        "provincia": "Santiago del Estero",
        "newSrc": "/img/tweets/G-MVWyEW4AAWbEO.jpg",
        "imgId": "G-MVWyEW4AAWbEO",
        "lat": -27.066833,
        "lon": -62.647246
    },
    {
        "imgSrc": "https://pbs.twimg.com/media/G-MDYlQaYAA6XJ3?format=jpg&name=small",
        "ciudad": "Simbolar",
        "departamento": "Totoral",
        "provincia": "Córdoba",
        "newSrc": "/img/tweets/G-MDYlQaYAA6XJ3.jpg",
        "imgId": "G-MDYlQaYAA6XJ3",
        "lat": -30.474413,
        "lon": -63.984714
    },
    {
        "imgSrc": "https://pbs.twimg.com/media/G-LQIugXoAAiOUZ?format=jpg&name=small",
        "ciudad": "Carmen",
        "departamento": "General López",
        "provincia": "Santa Fe",
        "newSrc": "/img/tweets/G-LQIugXoAAiOUZ.jpg",
        "imgId": "G-LQIugXoAAiOUZ",
        "lat": -33.730339,
        "lon": -61.76227
    },
    {
        "imgSrc": "https://pbs.twimg.com/media/G-K0vJHWcAIM0Rd?format=jpg&name=small",
        "ciudad": "San Martín de las Escobas",
        "departamento": "San Martín",
        "provincia": "Santa Fe",
        "newSrc": "/img/tweets/G-K0vJHWcAIM0Rd.jpg",
        "imgId": "G-K0vJHWcAIM0Rd",
        "lat": -31.857864,
        "lon": -61.56962
    },
    {
        "imgSrc": "https://pbs.twimg.com/media/G-KakrkW0AAyhhk?format=jpg&name=small",
        "ciudad": "Juan N. Fernández",
        "departamento": "Necochea",
        "provincia": "Buenos Aires",
        "newSrc": "/img/tweets/G-KakrkW0AAyhhk.jpg",
        "imgId": "G-KakrkW0AAyhhk",
        "lat": -38.005523,
        "lon": -59.263923
    },
    {
        "imgSrc": "https://pbs.twimg.com/media/G-JOwCmXMAA8i-7?format=jpg&name=small",
        "ciudad": "Bernardo de Irigoyen",
        "departamento": "San Jerónimo",
        "provincia": "Santa Fe",
        "newSrc": "/img/tweets/G-JOwCmXMAA8i-7.jpg",
        "imgId": "G-JOwCmXMAA8i-7",
        "lat": -32.169683,
        "lon": -61.156687
    },
    {
        "imgSrc": "https://pbs.twimg.com/media/G-J_7ZYX0AAd2If?format=jpg&name=small",
        "ciudad": "Alejandra",
        "departamento": "San Javier",
        "provincia": "Santa Fe",
        "newSrc": "/img/tweets/G-J_7ZYX0AAd2If.jpg",
        "imgId": "G-J_7ZYX0AAd2If",
        "lat": -29.90921,
        "lon": -59.826869
    },
    {
        "imgSrc": "https://pbs.twimg.com/media/G-IRwIXWAAABbYO?format=jpg&name=small",
        "ciudad": "Ceres",
        "departamento": "San Cristóbal",
        "provincia": "Santa Fe",
        "newSrc": "/img/tweets/G-IRwIXWAAABbYO.jpg",
        "imgId": "G-IRwIXWAAABbYO",
        "lat": -29.881894,
        "lon": -61.945094
    },
    {
        "imgSrc": "https://pbs.twimg.com/media/G-H2gvga0AITkaI?format=jpg&name=small",
        "ciudad": "Alto de Sierra",
        "departamento": "9 de Julio",
        "provincia": "San Juan",
        "newSrc": "/img/tweets/G-H2gvga0AITkaI.jpg",
        "imgId": "G-H2gvga0AITkaI",
        "lat": -31.538933,
        "lon": -68.413921
    },
    {
        "imgSrc": "https://pbs.twimg.com/media/G-HbOEvXoAAxVf0?format=jpg&name=small",
        "ciudad": "Plaza Luxardo",
        "departamento": "San Justo",
        "provincia": "Córdoba",
        "newSrc": "/img/tweets/G-HbOEvXoAAxVf0.jpg",
        "imgId": "G-HbOEvXoAAxVf0",
        "lat": -31.301748,
        "lon": -62.229167
    },
    {
        "imgSrc": "https://pbs.twimg.com/media/G-HLmZJa0AAMPjK?format=jpg&name=small",
        "ciudad": "Fiambalá",
        "departamento": "Tinogasta",
        "provincia": "Catamarca",
        "newSrc": "/img/tweets/G-HLmZJa0AAMPjK.jpg",
        "imgId": "G-HLmZJa0AAMPjK",
        "lat": -27.692193,
        "lon": -67.618906
    },
    {
        "imgSrc": "https://pbs.twimg.com/media/G-G5qVhWAAAC45X?format=jpg&name=small",
        "ciudad": "Bella Vista",
        "departamento": "Bella Vista",
        "provincia": "Corrientes",
        "newSrc": "/img/tweets/G-G5qVhWAAAC45X.jpg",
        "imgId": "G-G5qVhWAAAC45X",
        "lat": -28.507683,
        "lon": -59.045217
    },
    {
        "imgSrc": "https://pbs.twimg.com/media/G-GGXPXXoAAZM9L?format=jpg&name=small",
        "ciudad": "Minerva",
        "departamento": "Figueroa",
        "provincia": "Santiago del Estero",
        "newSrc": "/img/tweets/G-GGXPXXoAAZM9L.jpg",
        "imgId": "G-GGXPXXoAAZM9L",
        "lat": -27.533035,
        "lon": -63.383254
    },
    {
        "imgSrc": "https://pbs.twimg.com/media/G-Frj5yWwAAtJ0m?format=jpg&name=small",
        "ciudad": "Los Hoyos",
        "departamento": "Río Seco",
        "provincia": "Córdoba",
        "newSrc": "/img/tweets/G-Frj5yWwAAtJ0m.jpg",
        "imgId": "G-Frj5yWwAAtJ0m",
        "lat": -29.802463,
        "lon": -63.628247
    },
    {
        "imgSrc": "https://pbs.twimg.com/media/G-FRnvpa0AIrrQn?format=jpg&name=small",
        "ciudad": "Doctor Oscar Atilio Viglione (Frontera de Río Pico)",
        "departamento": "Tehuelches",
        "provincia": "Chubut",
        "newSrc": "/img/tweets/G-FRnvpa0AIrrQn.jpg",
        "imgId": "G-FRnvpa0AIrrQn",
        "lat": -44.191367,
        "lon": -71.664221
    },
    {
        "imgSrc": "https://pbs.twimg.com/media/G-E2OkcWQAAOtWg?format=jpg&name=small",
        "ciudad": "Chañar Pozo de Abajo",
        "departamento": "Río Hondo",
        "provincia": "Santiago del Estero",
        "newSrc": "/img/tweets/G-E2OkcWQAAOtWg.jpg",
        "imgId": "G-E2OkcWQAAOtWg",
        "lat": -27.56777,
        "lon": -64.723764
    },
    {
        "imgSrc": "https://pbs.twimg.com/media/G-EZnf5WgAEfaZH?format=jpg&name=small",
        "ciudad": "Del Campillo",
        "departamento": "General Roca",
        "provincia": "Córdoba",
        "newSrc": "/img/tweets/G-EZnf5WgAEfaZH.jpg",
        "imgId": "G-EZnf5WgAEfaZH",
        "lat": -34.378855,
        "lon": -64.497128
    },
    {
        "imgSrc": "https://pbs.twimg.com/media/G-EE7XRXsAAqlsm?format=jpg&name=small",
        "ciudad": "Tres Lagos",
        "departamento": "Lago Argentino",
        "provincia": "Santa Cruz",
        "newSrc": "/img/tweets/G-EE7XRXsAAqlsm.jpg",
        "imgId": "G-EE7XRXsAAqlsm",
        "lat": -49.59791,
        "lon": -71.446747
    },
    {
        "imgSrc": "https://pbs.twimg.com/media/G-DiYtRWsAAQ1ML?format=jpg&name=small",
        "ciudad": "Samuhú",
        "departamento": "San Lorenzo",
        "provincia": "Chaco",
        "newSrc": "/img/tweets/G-DiYtRWsAAQ1ML.jpg",
        "imgId": "G-DiYtRWsAAQ1ML",
        "lat": -27.519108,
        "lon": -60.394026
    },
    {
        "imgSrc": "https://pbs.twimg.com/media/G-DIQx-W4AA74RL?format=jpg&name=small",
        "ciudad": "Campo Durán",
        "departamento": "General José de San Martín",
        "provincia": "Salta",
        "newSrc": "/img/tweets/G-DIQx-W4AA74RL.jpg",
        "imgId": "G-DIQx-W4AA74RL",
        "lat": -22.200732,
        "lon": -63.675741
    },
    {
        "imgSrc": "https://pbs.twimg.com/media/G-Cs7rjbcAEz8-k?format=jpg&name=small",
        "ciudad": "Los Soria",
        "departamento": "Banda",
        "provincia": "Santiago del Estero",
        "newSrc": "/img/tweets/G-Cs7rjbcAEz8-k.jpg",
        "imgId": "G-Cs7rjbcAEz8-k",
        "lat": -27.622368,
        "lon": -64.370587
    },
    {
        "imgSrc": "https://pbs.twimg.com/media/G-CR5XdboAAvowV?format=jpg&name=small",
        "ciudad": "Singuil",
        "departamento": "Ambato",
        "provincia": "Catamarca",
        "newSrc": "/img/tweets/G-CR5XdboAAvowV.jpg",
        "imgId": "G-CR5XdboAAvowV",
        "lat": -27.804308,
        "lon": -65.871198
    },
    {
        "imgSrc": "https://pbs.twimg.com/media/G-BwLEjXYAAlFvN?format=jpg&name=small",
        "ciudad": "El Cóndor",
        "departamento": "Yavi",
        "provincia": "Jujuy",
        "newSrc": "/img/tweets/G-BwLEjXYAAlFvN.jpg",
        "imgId": "G-BwLEjXYAAlFvN",
        "lat": -22.388319,
        "lon": -65.33799
    },
    {
        "imgSrc": "https://pbs.twimg.com/media/G-AhDvhbcAYwFgz?format=jpg&name=small",
        "ciudad": "Recreo",
        "departamento": "La Capital",
        "provincia": "Santa Fe",
        "newSrc": "/img/tweets/G-AhDvhbcAYwFgz.jpg",
        "imgId": "G-AhDvhbcAYwFgz",
        "lat": -31.490893,
        "lon": -60.735449
    },
    {
        "imgSrc": "https://pbs.twimg.com/media/G9_sbyBXoAEKzoT?format=jpg&name=small",
        "ciudad": "Necochea - Quequén",
        "departamento": "Necochea",
        "provincia": "Buenos Aires",
        "newSrc": "/img/tweets/G9_sbyBXoAEKzoT.jpg",
        "imgId": "G9_sbyBXoAEKzoT",
        "lat": -38.55446,
        "lon": -58.739237
    },
    {
        "imgSrc": "https://pbs.twimg.com/media/G984eXHWUAAc4ig?format=jpg&name=small",
        "ciudad": "Cerro Policía",
        "departamento": "El Cuy",
        "provincia": "Río Negro",
        "newSrc": "/img/tweets/G984eXHWUAAc4ig.jpg",
        "imgId": "G984eXHWUAAc4ig",
        "lat": -39.726275,
        "lon": -68.491505
    },
    {
        "imgSrc": "https://pbs.twimg.com/media/G98meIPasAAnwPP?format=jpg&name=small",
        "ciudad": "Buen Pasto",
        "departamento": "Sarmiento",
        "provincia": "Chubut",
        "newSrc": "/img/tweets/G98meIPasAAnwPP.jpg",
        "imgId": "G98meIPasAAnwPP",
        "lat": -45.076133,
        "lon": -69.458899
    },
    {
        "imgSrc": "https://pbs.twimg.com/media/G97zTzHW0AAFaGj?format=jpg&name=small",
        "ciudad": "Manuel J. Cobo",
        "departamento": "Lezama",
        "provincia": "Buenos Aires",
        "newSrc": "/img/tweets/G97zTzHW0AAFaGj.jpg",
        "imgId": "G97zTzHW0AAFaGj",
        "lat": -35.872866,
        "lon": -57.896984
    },
    {
        "imgSrc": "https://pbs.twimg.com/media/G97X_qoXgAAtXCh?format=jpg&name=small",
        "ciudad": "Yacimientos Río Turbio",
        "departamento": "Güer Aike",
        "provincia": "Santa Cruz",
        "newSrc": "/img/tweets/G97X_qoXgAAtXCh.jpg",
        "imgId": "G97X_qoXgAAtXCh",
        "lat": -51.536423,
        "lon": -72.337855
    },
    {
        "imgSrc": "https://pbs.twimg.com/media/G96-M2FWYAAcix0?format=jpg&name=small",
        "ciudad": "Zenón Pereyra",
        "departamento": "Castellanos",
        "provincia": "Santa Fe",
        "newSrc": "/img/tweets/G96-M2FWYAAcix0.jpg",
        "imgId": "G96-M2FWYAAcix0",
        "lat": -31.560095,
        "lon": -61.896236
    },
    {
        "imgSrc": "https://pbs.twimg.com/media/G96iJDXbcAEal9E?format=jpg&name=small",
        "ciudad": "Constanza",
        "departamento": "San Cristóbal",
        "provincia": "Santa Fe",
        "newSrc": "/img/tweets/G96iJDXbcAEal9E.jpg",
        "imgId": "G96iJDXbcAEal9E",
        "lat": -30.663518,
        "lon": -61.319734
    },
    {
        "imgSrc": "https://pbs.twimg.com/media/G96Gb5zWQAA8HnK?format=jpg&name=small",
        "ciudad": "Pinchas",
        "departamento": "Castro Barros",
        "provincia": "La Rioja",
        "newSrc": "/img/tweets/G96Gb5zWQAA8HnK.jpg",
        "imgId": "G96Gb5zWQAA8HnK",
        "lat": -28.934787,
        "lon": -66.961168
    },
    {
        "imgSrc": "https://pbs.twimg.com/media/G95yJsLbQAEnoWK?format=jpg&name=small",
        "ciudad": "La Cesira",
        "departamento": "Presidente Roque Sáenz Peña",
        "provincia": "Córdoba",
        "newSrc": "/img/tweets/G95yJsLbQAEnoWK.jpg",
        "imgId": "G95yJsLbQAEnoWK",
        "lat": -33.953648,
        "lon": -62.977303
    },
    {
        "imgSrc": "https://pbs.twimg.com/media/G95Pi9bWUAA1818?format=jpg&name=small",
        "ciudad": "Campo Santo",
        "departamento": "General Güemes",
        "provincia": "Salta",
        "newSrc": "/img/tweets/G95Pi9bWUAA1818.jpg",
        "imgId": "G95Pi9bWUAA1818",
        "lat": -24.682967,
        "lon": -65.104945
    },
    {
        "imgSrc": "https://pbs.twimg.com/media/G941QXFbYAAB8Ew?format=jpg&name=small",
        "ciudad": "Nueva Trinidad",
        "departamento": "Simoca",
        "provincia": "Tucumán",
        "newSrc": "/img/tweets/G941QXFbYAAB8Ew.jpg",
        "imgId": "G941QXFbYAAB8Ew",
        "lat": -27.484511,
        "lon": -65.491251
    },
    {
        "imgSrc": "https://pbs.twimg.com/media/G92NwgOX0AEysil?format=jpg&name=small",
        "ciudad": "Piquirenda",
        "departamento": "General José de San Martín",
        "provincia": "Salta",
        "newSrc": "/img/tweets/G92NwgOX0AEysil.jpg",
        "imgId": "G92NwgOX0AEysil",
        "lat": -22.325044,
        "lon": -63.753306
    },
    {
        "imgSrc": "https://pbs.twimg.com/media/G91XhHeakAAnoST?format=jpg&name=small",
        "ciudad": "Rapelli",
        "departamento": "Pellegrini",
        "provincia": "Santiago del Estero",
        "newSrc": "/img/tweets/G91XhHeakAAnoST.jpg",
        "imgId": "G91XhHeakAAnoST",
        "lat": -26.393318,
        "lon": -64.505051
    },
    {
        "imgSrc": "https://pbs.twimg.com/media/G90ETUaWcAAMhnq?format=jpg&name=small",
        "ciudad": "San Cayetano",
        "departamento": "San Cayetano",
        "provincia": "Buenos Aires",
        "newSrc": "/img/tweets/G90ETUaWcAAMhnq.jpg",
        "imgId": "G90ETUaWcAAMhnq",
        "lat": -38.345789,
        "lon": -59.60676
    },
    {
        "imgSrc": "https://pbs.twimg.com/media/G9yZBdEXQAAKk0W?format=jpg&name=small",
        "ciudad": "Chorotis",
        "departamento": "Fray Justo Santa María de Oro",
        "provincia": "Chaco",
        "newSrc": "/img/tweets/G9yZBdEXQAAKk0W.jpg",
        "imgId": "G9yZBdEXQAAKk0W",
        "lat": -27.914645,
        "lon": -61.401399
    },
    {
        "imgSrc": "https://pbs.twimg.com/media/G9xfl4kW0AAs3cR?format=jpg&name=small",
        "ciudad": "Balde",
        "departamento": "Juan Martín Pueyrredón",
        "provincia": "San Luis",
        "newSrc": "/img/tweets/G9xfl4kW0AAs3cR.jpg",
        "imgId": "G9xfl4kW0AAs3cR",
        "lat": -33.341055,
        "lon": -66.621697
    },
    {
        "imgSrc": "https://pbs.twimg.com/media/G9xEAyIbcAAcZIQ?format=jpg&name=small",
        "ciudad": "Pituil",
        "departamento": "Famatina",
        "provincia": "La Rioja",
        "newSrc": "/img/tweets/G9xEAyIbcAAcZIQ.jpg",
        "imgId": "G9xEAyIbcAAcZIQ",
        "lat": -28.575978,
        "lon": -67.449094
    },
    {
        "imgSrc": "https://pbs.twimg.com/media/G9vxd9kWoAArgE5?format=jpg&name=small",
        "ciudad": "Molino Doll",
        "departamento": "Victoria",
        "provincia": "Entre Ríos",
        "newSrc": "/img/tweets/G9vxd9kWoAArgE5.jpg",
        "imgId": "G9vxd9kWoAArgE5",
        "lat": -32.306825,
        "lon": -60.423089
    },
    {
        "imgSrc": "https://pbs.twimg.com/media/G9vbIgtWUAEeNLp?format=jpg&name=small",
        "ciudad": "Yacuy",
        "departamento": "General José de San Martín",
        "provincia": "Salta",
        "newSrc": "/img/tweets/G9vbIgtWUAEeNLp.jpg",
        "imgId": "G9vbIgtWUAEeNLp",
        "lat": -22.369317,
        "lon": -63.768479
    },
    {
        "imgSrc": "https://pbs.twimg.com/media/G9tqNvQXsAA_grI?format=jpg&name=small",
        "ciudad": "Villa Rodríguez",
        "departamento": "Tres Arroyos",
        "provincia": "Buenos Aires",
        "newSrc": "/img/tweets/G9tqNvQXsAA_grI.jpg",
        "imgId": "G9tqNvQXsAA_grI",
        "lat": -38.312396,
        "lon": -60.231647
    },
    {
        "imgSrc": "https://pbs.twimg.com/media/G9tINOTXAAA8g8t?format=jpg&name=small",
        "ciudad": "Impira",
        "departamento": "Río Segundo",
        "provincia": "Córdoba",
        "newSrc": "/img/tweets/G9tINOTXAAA8g8t.jpg",
        "imgId": "G9tINOTXAAA8g8t",
        "lat": -31.798474,
        "lon": -63.650083
    },
    {
        "imgSrc": "https://pbs.twimg.com/media/G9sWJt7WoAAbbck?format=jpg&name=small",
        "ciudad": "Paso del Durazno",
        "departamento": "Juárez Celman",
        "provincia": "Córdoba",
        "newSrc": "/img/tweets/G9sWJt7WoAAbbck.jpg",
        "imgId": "G9sWJt7WoAAbbck",
        "lat": -33.170737,
        "lon": -64.047763
    },
    {
        "imgSrc": "https://pbs.twimg.com/media/G9qokSXXgAEQ3QF?format=jpg&name=small",
        "ciudad": "Barrio Luisillo",
        "departamento": "General Roca",
        "provincia": "Río Negro",
        "newSrc": "/img/tweets/G9qokSXXgAEQ3QF.jpg",
        "imgId": "G9qokSXXgAEQ3QF",
        "lat": -39.056199,
        "lon": -67.345089
    },
    {
        "imgSrc": "https://pbs.twimg.com/media/G9pxe4ZXgAAy5HE?format=jpg&name=small",
        "ciudad": "Huaco",
        "departamento": "Jáchal",
        "provincia": "San Juan",
        "newSrc": "/img/tweets/G9pxe4ZXgAAy5HE.jpg",
        "imgId": "G9pxe4ZXgAAy5HE",
        "lat": -30.157755,
        "lon": -68.482428
    },
    {
        "imgSrc": "https://pbs.twimg.com/media/G9oScMcWEAAmIsJ?format=jpg&name=small",
        "ciudad": "Piamonte",
        "departamento": "San Martín",
        "provincia": "Santa Fe",
        "newSrc": "/img/tweets/G9oScMcWEAAmIsJ.jpg",
        "imgId": "G9oScMcWEAAmIsJ",
        "lat": -32.143926,
        "lon": -61.980442
    },
    {
        "imgSrc": "https://pbs.twimg.com/media/G9l7noiWEAAqFWJ?format=jpg&name=small",
        "ciudad": "Chacharramendi",
        "departamento": "Utracán",
        "provincia": "La Pampa",
        "newSrc": "/img/tweets/G9l7noiWEAAqFWJ.jpg",
        "imgId": "G9l7noiWEAAqFWJ",
        "lat": -37.332043,
        "lon": -65.651624
    },
    {
        "imgSrc": "https://pbs.twimg.com/media/G9iC8w7XcAAUL3E?format=jpg&name=small",
        "ciudad": "Palca de Varas",
        "departamento": "Humahuaca",
        "provincia": "Jujuy",
        "newSrc": "/img/tweets/G9iC8w7XcAAUL3E.jpg",
        "imgId": "G9iC8w7XcAAUL3E",
        "lat": -23.100325,
        "lon": -65.110308
    },
    {
        "imgSrc": "https://pbs.twimg.com/media/G9gVHkrXQAAq86O?format=jpg&name=small",
        "ciudad": "Las Isletillas",
        "departamento": "Tercero Arriba",
        "provincia": "Córdoba",
        "newSrc": "/img/tweets/G9gVHkrXQAAq86O.jpg",
        "imgId": "G9gVHkrXQAAq86O",
        "lat": -32.509219,
        "lon": -63.928956
    },
    {
        "imgSrc": "https://pbs.twimg.com/media/G9gAo14a8AE3Y5k?format=jpg&name=small",
        "ciudad": "Santa María",
        "departamento": "Concepción",
        "provincia": "Misiones",
        "newSrc": "/img/tweets/G9gAo14a8AE3Y5k.jpg",
        "imgId": "G9gAo14a8AE3Y5k",
        "lat": -27.934514,
        "lon": -55.407334
    },
    {
        "imgSrc": "https://pbs.twimg.com/media/G9feae1XcAALQ41?format=jpg&name=small",
        "ciudad": "Villa Turística del Embalse de Rio Hondo",
        "departamento": "Río Hondo",
        "provincia": "Santiago del Estero",
        "newSrc": "/img/tweets/G9feae1XcAALQ41.jpg",
        "imgId": "G9feae1XcAALQ41",
        "lat": -27.514297,
        "lon": -64.90695
    },
    {
        "imgSrc": "https://pbs.twimg.com/media/G9fEjAEWkAAS3kT?format=jpg&name=small",
        "ciudad": "Colonia Crespo",
        "departamento": "Paraná",
        "provincia": "Entre Ríos",
        "newSrc": "/img/tweets/G9fEjAEWkAAS3kT.jpg",
        "imgId": "G9fEjAEWkAAS3kT",
        "lat": -31.682881,
        "lon": -60.231082
    },
    {
        "imgSrc": "https://pbs.twimg.com/media/G9epggeWcAAZ2g1?format=jpg&name=small",
        "ciudad": "Nuevo Torino",
        "departamento": "Las Colonias",
        "provincia": "Santa Fe",
        "newSrc": "/img/tweets/G9epggeWcAAZ2g1.jpg",
        "imgId": "G9epggeWcAAZ2g1",
        "lat": -31.345007,
        "lon": -61.235135
    },
    {
        "imgSrc": "https://pbs.twimg.com/media/G9aVTtdagAAJyJm?format=jpg&name=small",
        "ciudad": "Casa de Piedra",
        "departamento": "Puelén",
        "provincia": "La Pampa",
        "newSrc": "/img/tweets/G9aVTtdagAAJyJm.jpg",
        "imgId": "G9aVTtdagAAJyJm",
        "lat": -38.154553,
        "lon": -67.152497
    },
    {
        "imgSrc": "https://pbs.twimg.com/media/G9Z6_t4XEAALf1X?format=jpg&name=small",
        "ciudad": "Concepción",
        "departamento": "Capayán",
        "provincia": "Catamarca",
        "newSrc": "/img/tweets/G9Z6_t4XEAALf1X.jpg",
        "imgId": "G9Z6_t4XEAALf1X",
        "lat": -28.687098,
        "lon": -66.065888
    },
    {
        "imgSrc": "https://pbs.twimg.com/media/G9ZE8G1X0AA1vT7?format=jpg&name=small",
        "ciudad": "Barrio Caima",
        "departamento": "San Jerónimo",
        "provincia": "Santa Fe",
        "newSrc": "/img/tweets/G9ZE8G1X0AA1vT7.jpg",
        "imgId": "G9ZE8G1X0AA1vT7",
        "lat": -31.83792,
        "lon": -60.865033
    },
    {
        "imgSrc": "https://pbs.twimg.com/media/G9Yi-EAasAAebqu?format=jpg&name=small",
        "ciudad": "Colonia Almada",
        "departamento": "Tercero Arriba",
        "provincia": "Córdoba",
        "newSrc": "/img/tweets/G9Yi-EAasAAebqu.jpg",
        "imgId": "G9Yi-EAasAAebqu",
        "lat": -32.035025,
        "lon": -63.864785
    },
    {
        "imgSrc": "https://pbs.twimg.com/media/G9WCihTbkAEjdWt?format=jpg&name=small",
        "ciudad": "Paso Córdova",
        "departamento": "General Roca",
        "provincia": "Río Negro",
        "newSrc": "/img/tweets/G9WCihTbkAEjdWt.jpg",
        "imgId": "G9WCihTbkAEjdWt",
        "lat": -39.106782,
        "lon": -67.62737
    },
    {
        "imgSrc": "https://pbs.twimg.com/media/G9VuWONWEAAbhE7?format=jpg&name=small",
        "ciudad": "Fortín Soledad",
        "departamento": "Bermejo",
        "provincia": "Formosa",
        "newSrc": "/img/tweets/G9VuWONWEAAbhE7.jpg",
        "imgId": "G9VuWONWEAAbhE7",
        "lat": -24.148754,
        "lon": -60.689961
    },
    {
        "imgSrc": "https://pbs.twimg.com/media/G9UxxxWWkAIOEh9?format=jpg&name=small",
        "ciudad": "Villa Don Bosco",
        "departamento": "San Martín",
        "provincia": "San Juan",
        "newSrc": "/img/tweets/G9UxxxWWkAIOEh9.jpg",
        "imgId": "G9UxxxWWkAIOEh9",
        "lat": -31.553816,
        "lon": -68.338975
    },
    {
        "imgSrc": "https://pbs.twimg.com/media/G9SKhbwWAAACU6O?format=jpg&name=small",
        "ciudad": "Phillips",
        "departamento": "Junín",
        "provincia": "Mendoza",
        "newSrc": "/img/tweets/G9SKhbwWAAACU6O.jpg",
        "imgId": "G9SKhbwWAAACU6O",
        "lat": -33.200981,
        "lon": -68.377493
    },
    {
        "imgSrc": "https://pbs.twimg.com/media/G9Q4G8FXMAAZdaQ?format=jpg&name=small",
        "ciudad": "Taco Pozo",
        "departamento": "Almirante Brown",
        "provincia": "Chaco",
        "newSrc": "/img/tweets/G9Q4G8FXMAAZdaQ.jpg",
        "imgId": "G9Q4G8FXMAAZdaQ",
        "lat": -25.615035,
        "lon": -63.264858
    },
    {
        "imgSrc": "https://pbs.twimg.com/media/G9OyGQtWMAEPxmt?format=jpg&name=small",
        "ciudad": "Presidencia Roque Sáenz Peña",
        "departamento": "Comandante Fernández",
        "provincia": "Chaco",
        "newSrc": "/img/tweets/G9OyGQtWMAEPxmt.jpg",
        "imgId": "G9OyGQtWMAEPxmt",
        "lat": -26.790972,
        "lon": -60.441248
    },
    {
        "imgSrc": "https://pbs.twimg.com/media/G9OVVoPWgAAQXva?format=jpg&name=small",
        "ciudad": "Cuesta Blanca",
        "departamento": "Punilla",
        "provincia": "Córdoba",
        "newSrc": "/img/tweets/G9OVVoPWgAAQXva.jpg",
        "imgId": "G9OVVoPWgAAQXva",
        "lat": -31.480335,
        "lon": -64.578692
    },
    {
        "imgSrc": "https://pbs.twimg.com/media/G9JXGLSWEAA2kt_?format=jpg&name=small",
        "ciudad": "Pie de Palo",
        "departamento": "Caucete",
        "provincia": "San Juan",
        "newSrc": "/img/tweets/G9JXGLSWEAA2kt_.jpg",
        "imgId": "G9JXGLSWEAA2kt_",
        "lat": -31.661265,
        "lon": -68.2197
    },
    {
        "imgSrc": "https://pbs.twimg.com/media/G9JFP_wWQAAfzhx?format=jpg&name=small",
        "ciudad": "Las Cuevas",
        "departamento": "Las Heras",
        "provincia": "Mendoza",
        "newSrc": "/img/tweets/G9JFP_wWQAAfzhx.jpg",
        "imgId": "G9JFP_wWQAAfzhx",
        "lat": -32.813948,
        "lon": -70.048955
    },
    {
        "imgSrc": "https://pbs.twimg.com/media/G9H3G6UXAAEqFFx?format=jpg&name=small",
        "ciudad": "Río Bamba",
        "departamento": "Presidente Roque Sáenz Peña",
        "provincia": "Córdoba",
        "newSrc": "/img/tweets/G9H3G6UXAAEqFFx.jpg",
        "imgId": "G9H3G6UXAAEqFFx",
        "lat": -34.051372,
        "lon": -63.733066
    },
    {
        "imgSrc": "https://pbs.twimg.com/media/G9IS3pLbgAMqInq?format=jpg&name=small",
        "ciudad": "Villa del Rosario",
        "departamento": "Federación",
        "provincia": "Entre Ríos",
        "newSrc": "/img/tweets/G9IS3pLbgAMqInq.jpg",
        "imgId": "G9IS3pLbgAMqInq",
        "lat": -30.795739,
        "lon": -57.914553
    },
    {
        "imgSrc": "https://pbs.twimg.com/media/G9HdXzLWUAAP2nC?format=jpg&name=small",
        "ciudad": "San Vicente",
        "departamento": "San Vicente",
        "provincia": "Buenos Aires",
        "newSrc": "/img/tweets/G9HdXzLWUAAP2nC.jpg",
        "imgId": "G9HdXzLWUAAP2nC",
        "lat": -35.024909,
        "lon": -58.424058
    },
    {
        "imgSrc": "https://pbs.twimg.com/media/G9HBGCWXQAAxPDa?format=jpg&name=small",
        "ciudad": "Villa del Carmen",
        "departamento": "Chacabuco",
        "provincia": "San Luis",
        "newSrc": "/img/tweets/G9HBGCWXQAAxPDa.jpg",
        "imgId": "G9HBGCWXQAAxPDa",
        "lat": -32.939955,
        "lon": -65.03888
    },
    {
        "imgSrc": "https://pbs.twimg.com/media/G9GlO8-bMAINT7E?format=jpg&name=small",
        "ciudad": "La Calera",
        "departamento": "Belgrano",
        "provincia": "San Luis",
        "newSrc": "/img/tweets/G9GlO8-bMAINT7E.jpg",
        "imgId": "G9GlO8-bMAINT7E",
        "lat": -32.863433,
        "lon": -66.849529
    },
    {
        "imgSrc": "https://pbs.twimg.com/media/G9FufuRWIAAVH08?format=jpg&name=small",
        "ciudad": "Barrio Finca La Maroma",
        "departamento": "Chicoana",
        "provincia": "Salta",
        "newSrc": "/img/tweets/G9FufuRWIAAVH08.jpg",
        "imgId": "G9FufuRWIAAVH08",
        "lat": -25.153321,
        "lon": -65.439353
    },
    {
        "imgSrc": "https://pbs.twimg.com/media/G9FUGcQaIAITruk?format=jpg&name=small",
        "ciudad": "Papagayos",
        "departamento": "Chacabuco",
        "provincia": "San Luis",
        "newSrc": "/img/tweets/G9FUGcQaIAITruk.jpg",
        "imgId": "G9FUGcQaIAITruk",
        "lat": -32.675103,
        "lon": -64.98895
    },
    {
        "imgSrc": "https://pbs.twimg.com/media/G9E5Y-nWMAAYtHs?format=jpg&name=small",
        "ciudad": "Garza",
        "departamento": "Sarmiento",
        "provincia": "Santiago del Estero",
        "newSrc": "/img/tweets/G9E5Y-nWMAAYtHs.jpg",
        "imgId": "G9E5Y-nWMAAYtHs",
        "lat": -28.152941,
        "lon": -63.538873
    },
    {
        "imgSrc": "https://pbs.twimg.com/media/G9Ed46nWkAAjVfj?format=jpg&name=small",
        "ciudad": "Paraje La Costa",
        "departamento": "La Capital",
        "provincia": "Santa Fe",
        "newSrc": "/img/tweets/G9Ed46nWkAAjVfj.jpg",
        "imgId": "G9Ed46nWkAAjVfj",
        "lat": -31.515355,
        "lon": -60.613211
    },
    {
        "imgSrc": "https://pbs.twimg.com/media/G9EOFqUXkAAtf1u?format=jpg&name=small",
        "ciudad": "Calchín Oeste",
        "departamento": "Río Segundo",
        "provincia": "Córdoba",
        "newSrc": "/img/tweets/G9EOFqUXkAAtf1u.jpg",
        "imgId": "G9EOFqUXkAAtf1u",
        "lat": -31.862549,
        "lon": -63.277786
    },
    {
        "imgSrc": "https://pbs.twimg.com/media/G9D8SAwWYAAlFsw?format=jpg&name=small",
        "ciudad": "Las Caleras",
        "departamento": "Calamuchita",
        "provincia": "Córdoba",
        "newSrc": "/img/tweets/G9D8SAwWYAAlFsw.jpg",
        "imgId": "G9D8SAwWYAAlFsw",
        "lat": -32.388803,
        "lon": -64.521436
    },
    {
        "imgSrc": "https://pbs.twimg.com/media/G9DJQE9XoAAhobh?format=jpg&name=small",
        "ciudad": "San Carlos de Bolívar",
        "departamento": "Bolívar",
        "provincia": "Buenos Aires",
        "newSrc": "/img/tweets/G9DJQE9XoAAhobh.jpg",
        "imgId": "G9DJQE9XoAAhobh",
        "lat": -36.229879,
        "lon": -61.113917
    },
    {
        "imgSrc": "https://pbs.twimg.com/media/G9CtyXXbQAAnhSM?format=jpg&name=small",
        "ciudad": "Yahapé",
        "departamento": "Berón de Astrada",
        "provincia": "Corrientes",
        "newSrc": "/img/tweets/G9CtyXXbQAAnhSM.jpg",
        "imgId": "G9CtyXXbQAAnhSM",
        "lat": -27.371446,
        "lon": -57.655037
    },
    {
        "imgSrc": "https://pbs.twimg.com/media/G9B4LCkb0AI0boc?format=jpg&name=small",
        "ciudad": "La Merced del Encón",
        "departamento": "Rosario de Lerma",
        "provincia": "Salta",
        "newSrc": "/img/tweets/G9B4LCkb0AI0boc.jpg",
        "imgId": "G9B4LCkb0AI0boc",
        "lat": -24.872809,
        "lon": -65.563222
    },
    {
        "imgSrc": "https://pbs.twimg.com/media/G9Ak5UYb0AYcBfb?format=jpg&name=small",
        "ciudad": "Tres Lagunas",
        "departamento": "Pilagás",
        "provincia": "Formosa",
        "newSrc": "/img/tweets/G9Ak5UYb0AYcBfb.jpg",
        "imgId": "G9Ak5UYb0AYcBfb",
        "lat": -25.216124,
        "lon": -58.513079
    },
    {
        "imgSrc": "https://pbs.twimg.com/media/G9AKk8SWIAEUXZt?format=jpg&name=small",
        "ciudad": "Rivadavia",
        "departamento": "Rivadavia",
        "provincia": "Mendoza",
        "newSrc": "/img/tweets/G9AKk8SWIAEUXZt.jpg",
        "imgId": "G9AKk8SWIAEUXZt",
        "lat": -33.195765,
        "lon": -68.465923
    },
    {
        "imgSrc": "https://pbs.twimg.com/media/G8_Usd-b0AEAFZM?format=jpg&name=small",
        "ciudad": "San Vicente",
        "departamento": "San Alberto",
        "provincia": "Córdoba",
        "newSrc": "/img/tweets/G8_Usd-b0AEAFZM.jpg",
        "imgId": "G8_Usd-b0AEAFZM",
        "lat": -31.850557,
        "lon": -65.429474
    },
    {
        "imgSrc": "https://pbs.twimg.com/media/G8_E45MaUAAJyRF?format=jpg&name=small",
        "ciudad": "Colonia Bremen",
        "departamento": "Unión",
        "provincia": "Córdoba",
        "newSrc": "/img/tweets/G8_E45MaUAAJyRF.jpg",
        "imgId": "G8_E45MaUAAJyRF",
        "lat": -33.464255,
        "lon": -62.731177
    },
    {
        "imgSrc": "https://pbs.twimg.com/media/G89kNIEb0AEpCo0?format=jpg&name=small",
        "ciudad": "Ramona",
        "departamento": "Castellanos",
        "provincia": "Santa Fe",
        "newSrc": "/img/tweets/G89kNIEb0AEpCo0.jpg",
        "imgId": "G89kNIEb0AEpCo0",
        "lat": -31.091856,
        "lon": -61.902472
    },
    {
        "imgSrc": "https://pbs.twimg.com/media/G88SBvNXsAAfkW3?format=jpg&name=small",
        "ciudad": "El Moreno",
        "departamento": "Tumbaya",
        "provincia": "Jujuy",
        "newSrc": "/img/tweets/G88SBvNXsAAfkW3.jpg",
        "imgId": "G88SBvNXsAAfkW3",
        "lat": -23.853706,
        "lon": -65.831797
    },
    {
        "imgSrc": "https://pbs.twimg.com/media/G89KUFTagAAcf3H?format=jpg&name=small",
        "ciudad": "El Sauzal",
        "departamento": "Río Hondo",
        "provincia": "Santiago del Estero",
        "newSrc": "/img/tweets/G89KUFTagAAcf3H.jpg",
        "imgId": "G89KUFTagAAcf3H",
        "lat": -27.488395,
        "lon": -64.582026
    },
    {
        "imgSrc": "https://pbs.twimg.com/media/G87bYcIbYAA_BXP?format=jpg&name=small",
        "ciudad": "Tranquitas",
        "departamento": "General José de San Martín",
        "provincia": "Salta",
        "newSrc": "/img/tweets/G87bYcIbYAA_BXP.jpg",
        "imgId": "G87bYcIbYAA_BXP",
        "lat": -22.406223,
        "lon": -63.775362
    },
    {
        "imgSrc": "https://pbs.twimg.com/media/G856sBoagAIMPgH?format=jpg&name=small",
        "ciudad": "Villa San José",
        "departamento": "Castellanos",
        "provincia": "Santa Fe",
        "newSrc": "/img/tweets/G856sBoagAIMPgH.jpg",
        "imgId": "G856sBoagAIMPgH",
        "lat": -31.336666,
        "lon": -61.621579
    },
    {
        "imgSrc": "https://pbs.twimg.com/media/G85ouWBW0AAephV?format=jpg&name=small",
        "ciudad": "Barrio Planta Compresora de Gas",
        "departamento": "Conesa",
        "provincia": "Río Negro",
        "newSrc": "/img/tweets/G85ouWBW0AAephV.jpg",
        "imgId": "G85ouWBW0AAephV",
        "lat": -40.06193,
        "lon": -64.474854
    },
    {
        "imgSrc": "https://pbs.twimg.com/media/G84184mXUAEBJv3?format=jpg&name=small",
        "ciudad": "Estación Chapadmalal",
        "departamento": "General Pueyrredón",
        "provincia": "Buenos Aires",
        "newSrc": "/img/tweets/G84184mXUAEBJv3.jpg",
        "imgId": "G84184mXUAEBJv3",
        "lat": -38.036654,
        "lon": -57.713504
    },
    {
        "imgSrc": "https://pbs.twimg.com/media/G84ajHRaoAAmON_?format=jpg&name=small",
        "ciudad": "Telén",
        "departamento": "Loventué",
        "provincia": "La Pampa",
        "newSrc": "/img/tweets/G84ajHRaoAAmON_.jpg",
        "imgId": "G84ajHRaoAAmON_",
        "lat": -36.264278,
        "lon": -65.511174
    },
    {
        "imgSrc": "https://pbs.twimg.com/media/G83I5MEW0AA9-i6?format=jpg&name=small",
        "ciudad": "Valcheta",
        "departamento": "Valcheta",
        "provincia": "Río Negro",
        "newSrc": "/img/tweets/G83I5MEW0AA9-i6.jpg",
        "imgId": "G83I5MEW0AA9-i6",
        "lat": -40.676352,
        "lon": -66.166517
    },
    {
        "imgSrc": "https://pbs.twimg.com/media/G83lWXCW0AAw6vG?format=jpg&name=small",
        "ciudad": "Amadores",
        "departamento": "Paclín",
        "provincia": "Catamarca",
        "newSrc": "/img/tweets/G83lWXCW0AAw6vG.jpg",
        "imgId": "G83lWXCW0AAw6vG",
        "lat": -28.262572,
        "lon": -65.637347
    },
    {
        "imgSrc": "https://pbs.twimg.com/media/G84BIuMaAAAW5EH?format=jpg&name=small",
        "ciudad": "Naschel",
        "departamento": "Chacabuco",
        "provincia": "San Luis",
        "newSrc": "/img/tweets/G84BIuMaAAAW5EH.jpg",
        "imgId": "G84BIuMaAAAW5EH",
        "lat": -32.915223,
        "lon": -65.375928
    },
    {
        "imgSrc": "https://pbs.twimg.com/media/G820cyZbEAAZfV0?format=jpg&name=small",
        "ciudad": "Pueblo Cazes",
        "departamento": "Colón",
        "provincia": "Entre Ríos",
        "newSrc": "/img/tweets/G820cyZbEAAZfV0.jpg",
        "imgId": "G820cyZbEAAZfV0",
        "lat": -32.00315,
        "lon": -58.490794
    },
    {
        "imgSrc": "https://pbs.twimg.com/media/G80xpPpaEAAqDc5?format=jpg&name=small",
        "ciudad": "Caseros",
        "departamento": "Uruguay",
        "provincia": "Entre Ríos",
        "newSrc": "/img/tweets/G80xpPpaEAAqDc5.jpg",
        "imgId": "G80xpPpaEAAqDc5",
        "lat": -32.462119,
        "lon": -58.479321
    },
    {
        "imgSrc": "https://pbs.twimg.com/media/G8y3XgyXYAEqqRz?format=jpg&name=small",
        "ciudad": "Las Jarillas",
        "departamento": "Punilla",
        "provincia": "Córdoba",
        "newSrc": "/img/tweets/G8y3XgyXYAEqqRz.jpg",
        "imgId": "G8y3XgyXYAEqqRz",
        "lat": -31.517419,
        "lon": -64.534184
    },
    {
        "imgSrc": "https://pbs.twimg.com/media/G8ybjx2XQAArowM?format=jpg&name=small",
        "ciudad": "Mutquin",
        "departamento": "Pomán",
        "provincia": "Catamarca",
        "newSrc": "/img/tweets/G8ybjx2XQAArowM.jpg",
        "imgId": "G8ybjx2XQAArowM",
        "lat": -28.314847,
        "lon": -66.149014
    },
    {
        "imgSrc": "https://pbs.twimg.com/media/G8x-_HibwAEPLT7?format=jpg&name=small",
        "ciudad": "Barrio Perdriel IV",
        "departamento": "Luján de Cuyo",
        "provincia": "Mendoza",
        "newSrc": "/img/tweets/G8x-_HibwAEPLT7.jpg",
        "imgId": "G8x-_HibwAEPLT7",
        "lat": -33.076683,
        "lon": -68.913799
    },
    {
        "imgSrc": "https://pbs.twimg.com/media/G8wTdeEXgAAeDN5?format=jpg&name=small",
        "ciudad": "Bocayuva",
        "departamento": "Pellegrini",
        "provincia": "Buenos Aires",
        "newSrc": "/img/tweets/G8wTdeEXgAAeDN5.jpg",
        "imgId": "G8wTdeEXgAAeDN5",
        "lat": -36.2061,
        "lon": -63.077533
    },
    {
        "imgSrc": "https://pbs.twimg.com/media/G8uirYNW0AA1PDU?format=jpg&name=small",
        "ciudad": "Nono",
        "departamento": "San Alberto",
        "provincia": "Córdoba",
        "newSrc": "/img/tweets/G8uirYNW0AA1PDU.jpg",
        "imgId": "G8uirYNW0AA1PDU",
        "lat": -31.797205,
        "lon": -65.002499
    },
    {
        "imgSrc": "https://pbs.twimg.com/media/G8oi-ovbMAYERzD?format=jpg&name=small",
        "ciudad": "Pigüé",
        "departamento": "Saavedra",
        "provincia": "Buenos Aires",
        "newSrc": "/img/tweets/G8oi-ovbMAYERzD.jpg",
        "imgId": "G8oi-ovbMAYERzD",
        "lat": -37.602549,
        "lon": -62.408361
    },
    {
        "imgSrc": "https://pbs.twimg.com/media/G8mZwAebMAMbiwS?format=jpg&name=small",
        "ciudad": "Misión El Cruce - El Milagro",
        "departamento": "General José de San Martín",
        "provincia": "Salta",
        "newSrc": "/img/tweets/G8mZwAebMAMbiwS.jpg",
        "imgId": "G8mZwAebMAMbiwS",
        "lat": -22.545077,
        "lon": -63.798959
    },
    {
        "imgSrc": "https://pbs.twimg.com/media/G8lA0QtbMAABcXl?format=jpg&name=small",
        "ciudad": "Barrio Emergente",
        "departamento": "General Roca",
        "provincia": "Río Negro",
        "newSrc": "/img/tweets/G8lA0QtbMAABcXl.jpg",
        "imgId": "G8lA0QtbMAABcXl",
        "lat": -39.001286,
        "lon": -67.848819
    },
    {
        "imgSrc": "https://pbs.twimg.com/media/G8jahelbMAEMmFx?format=jpg&name=small",
        "ciudad": "Chasicó",
        "departamento": "Tornquist",
        "provincia": "Buenos Aires",
        "newSrc": "/img/tweets/G8jahelbMAEMmFx.jpg",
        "imgId": "G8jahelbMAEMmFx",
        "lat": -38.337332,
        "lon": -62.644585
    },
    {
        "imgSrc": "https://pbs.twimg.com/media/G8iidBkaQAEs1X2?format=jpg&name=small",
        "ciudad": "Prahuaniyeu",
        "departamento": "9 de Julio",
        "provincia": "Río Negro",
        "newSrc": "/img/tweets/G8iidBkaQAEs1X2.jpg",
        "imgId": "G8iidBkaQAEs1X2",
        "lat": -41.338083,
        "lon": -67.905086
    },
    {
        "imgSrc": "https://pbs.twimg.com/media/G8hRUzaa0AEbEx9?format=jpg&name=small",
        "ciudad": "Saturnino María Laspiur",
        "departamento": "San Justo",
        "provincia": "Córdoba",
        "newSrc": "/img/tweets/G8hRUzaa0AEbEx9.jpg",
        "imgId": "G8hRUzaa0AEbEx9",
        "lat": -31.703482,
        "lon": -62.483462
    },
    {
        "imgSrc": "https://pbs.twimg.com/media/G8gKvqUakAAIVAn?format=jpg&name=small",
        "ciudad": "Aguaray",
        "departamento": "General José de San Martín",
        "provincia": "Salta",
        "newSrc": "/img/tweets/G8gKvqUakAAIVAn.jpg",
        "imgId": "G8gKvqUakAAIVAn",
        "lat": -22.244873,
        "lon": -63.735334
    },
    {
        "imgSrc": "https://pbs.twimg.com/media/G8eqdxQakAEpxl5?format=jpg&name=small",
        "ciudad": "Capitán Bermúdez",
        "departamento": "San Lorenzo",
        "provincia": "Santa Fe",
        "newSrc": "/img/tweets/G8eqdxQakAEpxl5.jpg",
        "imgId": "G8eqdxQakAEpxl5",
        "lat": -32.826456,
        "lon": -60.716156
    },
    {
        "imgSrc": "https://pbs.twimg.com/media/G8eRd2qbkAAnd5s?format=jpg&name=small",
        "ciudad": "Empedrado",
        "departamento": "Empedrado",
        "provincia": "Corrientes",
        "newSrc": "/img/tweets/G8eRd2qbkAAnd5s.jpg",
        "imgId": "G8eRd2qbkAAnd5s",
        "lat": -27.950703,
        "lon": -58.803095
    },
    {
        "imgSrc": "https://pbs.twimg.com/media/G8d19-vakAIQXH6?format=jpg&name=small",
        "ciudad": "Eufrasio Loza",
        "departamento": "Río Seco",
        "provincia": "Córdoba",
        "newSrc": "/img/tweets/G8d19-vakAIQXH6.jpg",
        "imgId": "G8d19-vakAIQXH6",
        "lat": -29.924738,
        "lon": -63.590815
    },
    {
        "imgSrc": "https://pbs.twimg.com/media/G8cH4x5bIAAGkhr?format=jpg&name=small",
        "ciudad": "Mundo Nuevo",
        "departamento": "Rivadavia",
        "provincia": "Mendoza",
        "newSrc": "/img/tweets/G8cH4x5bIAAGkhr.jpg",
        "imgId": "G8cH4x5bIAAGkhr",
        "lat": -33.175178,
        "lon": -68.427608
    },
    {
        "imgSrc": "https://pbs.twimg.com/media/G8XY4x5a4AIxnRR?format=jpg&name=small",
        "ciudad": "Dolavon",
        "departamento": "Gaiman",
        "provincia": "Chubut",
        "newSrc": "/img/tweets/G8XY4x5a4AIxnRR.jpg",
        "imgId": "G8XY4x5a4AIxnRR",
        "lat": -43.307979,
        "lon": -65.709872
    },
    {
        "imgSrc": "https://pbs.twimg.com/media/G8WjOmBa4AI_GWo?format=jpg&name=small",
        "ciudad": "Centro Forestal",
        "departamento": "Palpalá",
        "provincia": "Jujuy",
        "newSrc": "/img/tweets/G8WjOmBa4AI_GWo.jpg",
        "imgId": "G8WjOmBa4AI_GWo",
        "lat": -24.229027,
        "lon": -65.178415
    },
    {
        "imgSrc": "https://pbs.twimg.com/media/G8Uy0TeasAAU-zn?format=jpg&name=small",
        "ciudad": "San Genaro Norte",
        "departamento": "San Jerónimo",
        "provincia": "Santa Fe",
        "newSrc": "/img/tweets/G8Uy0TeasAAU-zn.jpg",
        "imgId": "G8Uy0TeasAAU-zn",
        "lat": -32.364952,
        "lon": -61.337167
    },
    {
        "imgSrc": "https://pbs.twimg.com/media/G8T-O6PaYAEFl8d?format=jpg&name=small",
        "ciudad": "Batán",
        "departamento": "General Pueyrredón",
        "provincia": "Buenos Aires",
        "newSrc": "/img/tweets/G8T-O6PaYAEFl8d.jpg",
        "imgId": "G8T-O6PaYAEFl8d",
        "lat": -38.007762,
        "lon": -57.710503
    },
    {
        "imgSrc": "https://pbs.twimg.com/media/G8TGyMma4Asi_L9?format=jpg&name=small",
        "ciudad": "Necochea - Quequén",
        "departamento": "Necochea",
        "provincia": "Buenos Aires",
        "newSrc": "/img/tweets/G8TGyMma4Asi_L9.jpg",
        "imgId": "G8TGyMma4Asi_L9",
        "lat": -38.55446,
        "lon": -58.739237
    },
    {
        "imgSrc": "https://pbs.twimg.com/media/G8R1FbvaEAAol3L?format=jpg&name=small",
        "ciudad": "Aldea San Isidro (El Cimarrón)",
        "departamento": "Federal",
        "provincia": "Entre Ríos",
        "newSrc": "/img/tweets/G8R1FbvaEAAol3L.jpg",
        "imgId": "G8R1FbvaEAAol3L",
        "lat": -30.974102,
        "lon": -58.996414
    },
    {
        "imgSrc": "https://pbs.twimg.com/media/G8OZyupbcAA-wsw?format=jpg&name=small",
        "ciudad": "El Sauzal",
        "departamento": "General Güemes",
        "provincia": "Chaco",
        "newSrc": "/img/tweets/G8OZyupbcAA-wsw.jpg",
        "imgId": "G8OZyupbcAA-wsw",
        "lat": -24.578514,
        "lon": -61.534955
    },
    {
        "imgSrc": "https://pbs.twimg.com/media/G8N9jj6awAAykau?format=jpg&name=small",
        "ciudad": "Chauchillas",
        "departamento": "Río Hondo",
        "provincia": "Santiago del Estero",
        "newSrc": "/img/tweets/G8N9jj6awAAykau.jpg",
        "imgId": "G8N9jj6awAAykau",
        "lat": -27.519359,
        "lon": -64.559434
    },
    {
        "imgSrc": "https://pbs.twimg.com/media/G8Mru6JbQAAyHix?format=jpg&name=small",
        "ciudad": "La Cruz",
        "departamento": "San Martín",
        "provincia": "Corrientes",
        "newSrc": "/img/tweets/G8Mru6JbQAAyHix.jpg",
        "imgId": "G8Mru6JbQAAyHix",
        "lat": -29.178629,
        "lon": -56.638295
    },
    {
        "imgSrc": "https://pbs.twimg.com/media/G8LTlvUaEAAV0-N?format=jpg&name=small",
        "ciudad": "El Talar",
        "departamento": "Santa Bárbara",
        "provincia": "Jujuy",
        "newSrc": "/img/tweets/G8LTlvUaEAAV0-N.jpg",
        "imgId": "G8LTlvUaEAAV0-N",
        "lat": -23.556359,
        "lon": -64.359889
    },
    {
        "imgSrc": "https://pbs.twimg.com/media/G8KfS84a8AAONop?format=jpg&name=small",
        "ciudad": "Santa Rita de Catuna",
        "departamento": "General Ocampo",
        "provincia": "La Rioja",
        "newSrc": "/img/tweets/G8KfS84a8AAONop.jpg",
        "imgId": "G8KfS84a8AAONop",
        "lat": -30.954713,
        "lon": -66.220689
    },
    {
        "imgSrc": "https://pbs.twimg.com/media/G8KED7SbEAAhzqi?format=jpg&name=small",
        "ciudad": "Mayu Sumaj",
        "departamento": "Punilla",
        "provincia": "Córdoba",
        "newSrc": "/img/tweets/G8KED7SbEAAhzqi.jpg",
        "imgId": "G8KED7SbEAAhzqi",
        "lat": -31.472272,
        "lon": -64.54147
    },
    {
        "imgSrc": "https://pbs.twimg.com/media/G8JN6m4aQAAxmCG?format=jpg&name=small",
        "ciudad": "La Poma",
        "departamento": "La Poma",
        "provincia": "Salta",
        "newSrc": "/img/tweets/G8JN6m4aQAAxmCG.jpg",
        "imgId": "G8JN6m4aQAAxmCG",
        "lat": -24.722564,
        "lon": -66.200582
    },
    {
        "imgSrc": "https://pbs.twimg.com/media/G8H6y3XbUAArlqS?format=jpg&name=small",
        "ciudad": "Dique Florentino Ameghino",
        "departamento": "Gaiman",
        "provincia": "Chubut",
        "newSrc": "/img/tweets/G8H6y3XbUAArlqS.jpg",
        "imgId": "G8H6y3XbUAArlqS",
        "lat": -43.699068,
        "lon": -66.471326
    },
    {
        "imgSrc": "https://pbs.twimg.com/media/G8HgOaibkAANWtA?format=jpg&name=small",
        "ciudad": "Talita",
        "departamento": "Junín",
        "provincia": "San Luis",
        "newSrc": "/img/tweets/G8HgOaibkAANWtA.jpg",
        "imgId": "G8HgOaibkAANWtA",
        "lat": -32.248952,
        "lon": -65.583238
    },
    {
        "imgSrc": "https://pbs.twimg.com/media/G8GKd-LbsAAhN-F?format=jpg&name=small",
        "ciudad": "Juventud Unida",
        "departamento": "Pichi Mahuida",
        "provincia": "Río Negro",
        "newSrc": "/img/tweets/G8GKd-LbsAAhN-F.jpg",
        "imgId": "G8GKd-LbsAAhN-F",
        "lat": -39.017721,
        "lon": -64.065802
    },
    {
        "imgSrc": "https://pbs.twimg.com/media/G8FVzaXbYAAMY1v?format=jpg&name=small",
        "ciudad": "Rivadavia",
        "departamento": "Rivadavia",
        "provincia": "Salta",
        "newSrc": "/img/tweets/G8FVzaXbYAAMY1v.jpg",
        "imgId": "G8FVzaXbYAAMY1v",
        "lat": -24.184971,
        "lon": -62.888305
    },
    {
        "imgSrc": "https://pbs.twimg.com/media/G8Ef5UhbUAA6EqT?format=jpg&name=small",
        "ciudad": "Villa Ciudad de América",
        "departamento": "Santa María",
        "provincia": "Córdoba",
        "newSrc": "/img/tweets/G8Ef5UhbUAA6EqT.jpg",
        "imgId": "G8Ef5UhbUAA6EqT",
        "lat": -31.79188,
        "lon": -64.508655
    },
    {
        "imgSrc": "https://pbs.twimg.com/media/G8Dn05wWYAUQEBM?format=jpg&name=small",
        "ciudad": "Quilmes",
        "departamento": "Quilmes",
        "provincia": "Buenos Aires",
        "newSrc": "/img/tweets/G8Dn05wWYAUQEBM.jpg",
        "imgId": "G8Dn05wWYAUQEBM",
        "lat": -34.718858,
        "lon": -58.260365
    },
    {
        "imgSrc": "https://pbs.twimg.com/media/G8DRU5BXQAIzTgT?format=jpg&name=small",
        "ciudad": "La Florida",
        "departamento": "Cruz Alta",
        "provincia": "Tucumán",
        "newSrc": "/img/tweets/G8DRU5BXQAIzTgT.jpg",
        "imgId": "G8DRU5BXQAIzTgT",
        "lat": -26.820713,
        "lon": -65.095386
    },
    {
        "imgSrc": "https://pbs.twimg.com/media/G8CxFzmaUAA01QF?format=jpg&name=small",
        "ciudad": "Jacinto L. Aráuz",
        "departamento": "Las Colonias",
        "provincia": "Santa Fe",
        "newSrc": "/img/tweets/G8CxFzmaUAA01QF.jpg",
        "imgId": "G8CxFzmaUAA01QF",
        "lat": -30.734298,
        "lon": -60.975553
    },
    {
        "imgSrc": "https://pbs.twimg.com/media/G8CWj8vWcAEy4FD?format=jpg&name=small",
        "ciudad": "General Galarza",
        "departamento": "Gualeguay",
        "provincia": "Entre Ríos",
        "newSrc": "/img/tweets/G8CWj8vWcAEy4FD.jpg",
        "imgId": "G8CWj8vWcAEy4FD",
        "lat": -32.720485,
        "lon": -59.395707
    },
    {
        "imgSrc": "https://pbs.twimg.com/media/G8B76hsXUAEDe3z?format=jpg&name=small",
        "ciudad": "Gobernador Crespo",
        "departamento": "San Justo",
        "provincia": "Santa Fe",
        "newSrc": "/img/tweets/G8B76hsXUAEDe3z.jpg",
        "imgId": "G8B76hsXUAEDe3z",
        "lat": -30.362954,
        "lon": -60.40024
    },
    {
        "imgSrc": "https://pbs.twimg.com/media/G8Bfl9yW4AA6MsA?format=jpg&name=small",
        "ciudad": "Quintas El Mirador",
        "departamento": "Biedma",
        "provincia": "Chubut",
        "newSrc": "/img/tweets/G8Bfl9yW4AA6MsA.jpg",
        "imgId": "G8Bfl9yW4AA6MsA",
        "lat": -42.813969,
        "lon": -65.039525
    },
    {
        "imgSrc": "https://pbs.twimg.com/media/G8BPLUVagAMXiqz?format=jpg&name=small",
        "ciudad": "Carhué",
        "departamento": "Adolfo Alsina",
        "provincia": "Buenos Aires",
        "newSrc": "/img/tweets/G8BPLUVagAMXiqz.jpg",
        "imgId": "G8BPLUVagAMXiqz",
        "lat": -37.179483,
        "lon": -62.75999
    },
    {
        "imgSrc": "https://pbs.twimg.com/media/G8A9vpxXIAEb-vX?format=jpg&name=small",
        "ciudad": "Las Lajas",
        "departamento": "Picunches",
        "provincia": "Neuquén",
        "newSrc": "/img/tweets/G8A9vpxXIAEb-vX.jpg",
        "imgId": "G8A9vpxXIAEb-vX",
        "lat": -38.523415,
        "lon": -70.361641
    },
    {
        "imgSrc": "https://pbs.twimg.com/media/G8AMejYXIAQGMph?format=jpg&name=small",
        "ciudad": "Dique Chico",
        "departamento": "Santa María",
        "provincia": "Córdoba",
        "newSrc": "/img/tweets/G8AMejYXIAQGMph.jpg",
        "imgId": "G8AMejYXIAQGMph",
        "lat": -31.745849,
        "lon": -64.365811
    },
    {
        "imgSrc": "https://pbs.twimg.com/media/G7_xLlWbgAADzrp?format=jpg&name=small",
        "ciudad": "Country Club El Casco",
        "departamento": "Zárate",
        "provincia": "Buenos Aires",
        "newSrc": "/img/tweets/G7_xLlWbgAADzrp.jpg",
        "imgId": "G7_xLlWbgAADzrp",
        "lat": -34.127805,
        "lon": -59.08376
    },
    {
        "imgSrc": "https://pbs.twimg.com/media/G7_Xh-kXgAIdgry?format=jpg&name=small",
        "ciudad": "Mina Santa Teresita",
        "departamento": "25 de Mayo",
        "provincia": "Río Negro",
        "newSrc": "/img/tweets/G7_Xh-kXgAIdgry.jpg",
        "imgId": "G7_Xh-kXgAIdgry",
        "lat": -40.928101,
        "lon": -69.39854
    },
    {
        "imgSrc": "https://pbs.twimg.com/media/G7-6_QXagAQp208?format=jpg&name=small",
        "ciudad": "San Andrés de Giles",
        "departamento": "San Andrés de Giles",
        "provincia": "Buenos Aires",
        "newSrc": "/img/tweets/G7-6_QXagAQp208.jpg",
        "imgId": "G7-6_QXagAQp208",
        "lat": -34.442377,
        "lon": -59.447519
    },
    {
        "imgSrc": "https://pbs.twimg.com/media/G7-eTXvWIAMMeJ6?format=jpg&name=small",
        "ciudad": "Mar del Plata",
        "departamento": "General Pueyrredón",
        "provincia": "Buenos Aires",
        "newSrc": "/img/tweets/G7-eTXvWIAMMeJ6.jpg",
        "imgId": "G7-eTXvWIAMMeJ6",
        "lat": -37.997611,
        "lon": -57.548162
    },
    {
        "imgSrc": "https://pbs.twimg.com/media/G7-KrRXagAEbp59?format=jpg&name=small",
        "ciudad": "La Morada",
        "departamento": "Colón",
        "provincia": "Córdoba",
        "newSrc": "/img/tweets/G7-KrRXagAEbp59.jpg",
        "imgId": "G7-KrRXagAEbp59",
        "lat": -31.305774,
        "lon": -64.246302
    },
    {
        "imgSrc": "https://pbs.twimg.com/media/G79ouGWa8AAXhhu?format=jpg&name=small",
        "ciudad": "Barrio Santa Lucia",
        "departamento": "General Roca",
        "provincia": "Río Negro",
        "newSrc": "/img/tweets/G79ouGWa8AAXhhu.jpg",
        "imgId": "G79ouGWa8AAXhhu",
        "lat": -39.033518,
        "lon": -67.298696
    },
    {
        "imgSrc": "https://pbs.twimg.com/media/G79OeW8XcAU-TRC?format=jpg&name=small",
        "ciudad": "Villa Catedral",
        "departamento": "Bariloche",
        "provincia": "Río Negro",
        "newSrc": "/img/tweets/G79OeW8XcAU-TRC.jpg",
        "imgId": "G79OeW8XcAU-TRC",
        "lat": -41.167621,
        "lon": -71.440214
    },
    {
        "imgSrc": "https://pbs.twimg.com/media/G78zQZNaoAAnI35?format=jpg&name=small",
        "ciudad": "Los Cedros",
        "departamento": "Santa María",
        "provincia": "Córdoba",
        "newSrc": "/img/tweets/G78zQZNaoAAnI35.jpg",
        "imgId": "G78zQZNaoAAnI35",
        "lat": -31.526144,
        "lon": -64.284524
    },
    {
        "imgSrc": "https://pbs.twimg.com/media/G78XUTQXwAEnyb6?format=jpg&name=small",
        "ciudad": "Las Isletillas",
        "departamento": "Tercero Arriba",
        "provincia": "Córdoba",
        "newSrc": "/img/tweets/G78XUTQXwAEnyb6.jpg",
        "imgId": "G78XUTQXwAEnyb6",
        "lat": -32.509219,
        "lon": -63.928956
    },
    {
        "imgSrc": "https://pbs.twimg.com/media/G78HkviWQAAxZeu?format=jpg&name=small",
        "ciudad": "Cululú",
        "departamento": "Las Colonias",
        "provincia": "Santa Fe",
        "newSrc": "/img/tweets/G78HkviWQAAxZeu.jpg",
        "imgId": "G78HkviWQAAxZeu",
        "lat": -31.206092,
        "lon": -60.930019
    },
    {
        "imgSrc": "https://pbs.twimg.com/media/G771zn1agAYz12A?format=jpg&name=small",
        "ciudad": "Lucas González",
        "departamento": "Nogoyá",
        "provincia": "Entre Ríos",
        "newSrc": "/img/tweets/G771zn1agAYz12A.jpg",
        "imgId": "G771zn1agAYz12A",
        "lat": -32.384394,
        "lon": -59.530847
    },
    {
        "imgSrc": "https://pbs.twimg.com/media/G77DKMPXAAIp_AT?format=jpg&name=small",
        "ciudad": "Olacapato",
        "departamento": "Los Andes",
        "provincia": "Salta",
        "newSrc": "/img/tweets/G77DKMPXAAIp_AT.jpg",
        "imgId": "G77DKMPXAAIp_AT",
        "lat": -24.137486,
        "lon": -66.718826
    },
    {
        "imgSrc": "https://pbs.twimg.com/media/G76nT3xWoAEuJHo?format=jpg&name=small",
        "ciudad": "Famatanca",
        "departamento": "Santa María",
        "provincia": "Catamarca",
        "newSrc": "/img/tweets/G76nT3xWoAEuJHo.jpg",
        "imgId": "G76nT3xWoAEuJHo",
        "lat": -26.768363,
        "lon": -66.082603
    },
    {
        "imgSrc": "https://pbs.twimg.com/media/G76ORuxagAEsKf1?format=jpg&name=small",
        "ciudad": "Naupa Huen",
        "departamento": "El Cuy",
        "provincia": "Río Negro",
        "newSrc": "/img/tweets/G76ORuxagAEsKf1.jpg",
        "imgId": "G76ORuxagAEsKf1",
        "lat": -39.830225,
        "lon": -69.509124
    },
    {
        "imgSrc": "https://pbs.twimg.com/media/G75zXqFWYAAT-UU?format=jpg&name=small",
        "ciudad": "Vásquez",
        "departamento": "Adolfo Gonzales Chaves",
        "provincia": "Buenos Aires",
        "newSrc": "/img/tweets/G75zXqFWYAAT-UU.jpg",
        "imgId": "G75zXqFWYAAT-UU",
        "lat": -38.175801,
        "lon": -60.169791
    },
    {
        "imgSrc": "https://pbs.twimg.com/media/G75VuXWXgAAfLdh?format=jpg&name=small",
        "ciudad": "Rodeito",
        "departamento": "San Pedro",
        "provincia": "Jujuy",
        "newSrc": "/img/tweets/G75VuXWXgAAfLdh.jpg",
        "imgId": "G75VuXWXgAAfLdh",
        "lat": -24.27155,
        "lon": -64.76941
    },
    {
        "imgSrc": "https://pbs.twimg.com/media/G75B73bWsAIKn2Z?format=jpg&name=small",
        "ciudad": "Centro 25 de Junio",
        "departamento": "Anta",
        "provincia": "Salta",
        "newSrc": "/img/tweets/G75B73bWsAIKn2Z.jpg",
        "imgId": "G75B73bWsAIKn2Z",
        "lat": -24.957299,
        "lon": -63.854644
    },
    {
        "imgSrc": "https://pbs.twimg.com/media/G74fcE3aIAA6PIx?format=jpg&name=small",
        "ciudad": "Guadalcazar",
        "departamento": "Bermejo",
        "provincia": "Formosa",
        "newSrc": "/img/tweets/G74fcE3aIAA6PIx.jpg",
        "imgId": "G74fcE3aIAA6PIx",
        "lat": -23.672948,
        "lon": -61.163608
    },
    {
        "imgSrc": "https://pbs.twimg.com/media/G74Esxib0AAJnPf?format=jpg&name=small",
        "ciudad": "Astra",
        "departamento": "Escalante",
        "provincia": "Chubut",
        "newSrc": "/img/tweets/G74Esxib0AAJnPf.jpg",
        "imgId": "G74Esxib0AAJnPf",
        "lat": -45.73204,
        "lon": -67.491996
    },
    {
        "imgSrc": "https://pbs.twimg.com/media/G73p3b_XMAE4OX8?format=jpg&name=small",
        "ciudad": "Barrio El Pacaá - Barrio Comipini",
        "departamento": "San Jerónimo",
        "provincia": "Santa Fe",
        "newSrc": "/img/tweets/G73p3b_XMAE4OX8.jpg",
        "imgId": "G73p3b_XMAE4OX8",
        "lat": -32.128576,
        "lon": -60.930557
    },
    {
        "imgSrc": "https://pbs.twimg.com/media/G73OPw7WAAEIj4B?format=jpg&name=small",
        "ciudad": "Intiyaco",
        "departamento": "Vera",
        "provincia": "Santa Fe",
        "newSrc": "/img/tweets/G73OPw7WAAEIj4B.jpg",
        "imgId": "G73OPw7WAAEIj4B",
        "lat": -28.674866,
        "lon": -60.070701
    },
    {
        "imgSrc": "https://pbs.twimg.com/media/G72-D1-XEAASdDR?format=jpg&name=small",
        "ciudad": "Colonia Avigdor",
        "departamento": "La Paz",
        "provincia": "Entre Ríos",
        "newSrc": "/img/tweets/G72-D1-XEAASdDR.jpg",
        "imgId": "G72-D1-XEAASdDR",
        "lat": -31.183195,
        "lon": -59.408237
    },
    {
        "imgSrc": "https://pbs.twimg.com/media/G72sUMZWcAY7pNw?format=jpg&name=small",
        "ciudad": "Loma Blanca",
        "departamento": "General Belgrano",
        "provincia": "La Rioja",
        "newSrc": "/img/tweets/G72sUMZWcAY7pNw.jpg",
        "imgId": "G72sUMZWcAY7pNw",
        "lat": -30.641008,
        "lon": -66.242632
    },
    {
        "imgSrc": "https://pbs.twimg.com/media/G715m9YXAAE6CqI?format=jpg&name=small",
        "ciudad": "Florentino Ameghino",
        "departamento": "Florentino Ameghino",
        "provincia": "Buenos Aires",
        "newSrc": "/img/tweets/G715m9YXAAE6CqI.jpg",
        "imgId": "G715m9YXAAE6CqI",
        "lat": -34.845372,
        "lon": -62.467157
    },
    {
        "imgSrc": "https://pbs.twimg.com/media/G71e2rNX0AAb1qd?format=jpg&name=small",
        "ciudad": "General José de San Martín",
        "departamento": "Libertador General San Martín",
        "provincia": "Chaco",
        "newSrc": "/img/tweets/G71e2rNX0AAb1qd.jpg",
        "imgId": "G71e2rNX0AAb1qd",
        "lat": -26.536302,
        "lon": -59.341321
    },
    {
        "imgSrc": "https://pbs.twimg.com/media/G71EQk6XEAAAnvK?format=jpg&name=small",
        "ciudad": "Aldea Spatzenkutter",
        "departamento": "Diamante",
        "provincia": "Entre Ríos",
        "newSrc": "/img/tweets/G71EQk6XEAAAnvK.jpg",
        "imgId": "G71EQk6XEAAAnvK",
        "lat": -31.946179,
        "lon": -60.580863
    },
    {
        "imgSrc": "https://pbs.twimg.com/media/G70o-9nWgAADxS2?format=jpg&name=small",
        "ciudad": "Fortín Las Chuñas",
        "departamento": "Independencia",
        "provincia": "Chaco",
        "newSrc": "/img/tweets/G70o-9nWgAADxS2.jpg",
        "imgId": "G70o-9nWgAADxS2",
        "lat": -26.884353,
        "lon": -60.909563
    },
    {
        "imgSrc": "https://pbs.twimg.com/media/G70M8YRWQAAiX6q?format=jpg&name=small",
        "ciudad": "La Hoyada",
        "departamento": "Santa María",
        "provincia": "Catamarca",
        "newSrc": "/img/tweets/G70M8YRWQAAiX6q.jpg",
        "imgId": "G70M8YRWQAAiX6q",
        "lat": -26.543619,
        "lon": -66.362165
    },
    {
        "imgSrc": "https://pbs.twimg.com/media/G7z4GPpaMAEG8R1?format=jpg&name=small",
        "ciudad": "Apoyaco",
        "departamento": "Pomán",
        "provincia": "Catamarca",
        "newSrc": "/img/tweets/G7z4GPpaMAEG8R1.jpg",
        "imgId": "G7z4GPpaMAEG8R1",
        "lat": -28.305674,
        "lon": -66.136604
    },
    {
        "imgSrc": "https://pbs.twimg.com/media/G7zV7C0XMAA_nJ-?format=jpg&name=small",
        "ciudad": "Aldea Escolar (Los Rápidos)",
        "departamento": "Futaleufú",
        "provincia": "Chubut",
        "newSrc": "/img/tweets/G7zV7C0XMAA_nJ-.jpg",
        "imgId": "G7zV7C0XMAA_nJ-",
        "lat": -43.13302,
        "lon": -71.550983
    },
    {
        "imgSrc": "https://pbs.twimg.com/media/G7y7Fl8aMAAv9yG?format=jpg&name=small",
        "ciudad": "Banderaló",
        "departamento": "General Villegas",
        "provincia": "Buenos Aires",
        "newSrc": "/img/tweets/G7y7Fl8aMAAv9yG.jpg",
        "imgId": "G7y7Fl8aMAAv9yG",
        "lat": -35.014868,
        "lon": -63.375962
    },
    {
        "imgSrc": "https://pbs.twimg.com/media/G7ygBPcaMAMawe3?format=jpg&name=small",
        "ciudad": "Berna",
        "departamento": "General Obligado",
        "provincia": "Santa Fe",
        "newSrc": "/img/tweets/G7ygBPcaMAMawe3.jpg",
        "imgId": "G7ygBPcaMAMawe3",
        "lat": -29.272668,
        "lon": -59.845311
    },
    {
        "imgSrc": "https://pbs.twimg.com/media/G7yEKP8aMAIktVw?format=jpg&name=small",
        "ciudad": "Colonia Dolores",
        "departamento": "San Justo",
        "provincia": "Santa Fe",
        "newSrc": "/img/tweets/G7yEKP8aMAIktVw.jpg",
        "imgId": "G7yEKP8aMAIktVw",
        "lat": -30.382385,
        "lon": -60.330486
    },
    {
        "imgSrc": "https://pbs.twimg.com/media/G7x0D_BakAAC3QR?format=jpg&name=small",
        "ciudad": "Barrio Emanuel",
        "departamento": "San Martín",
        "provincia": "Mendoza",
        "newSrc": "/img/tweets/G7x0D_BakAAC3QR.jpg",
        "imgId": "G7x0D_BakAAC3QR",
        "lat": -32.842994,
        "lon": -68.393257
    },
    {
        "imgSrc": "https://pbs.twimg.com/media/G7wvaaoXUAANgVt?format=jpg&name=small",
        "ciudad": "Josefina",
        "departamento": "Castellanos",
        "provincia": "Santa Fe",
        "newSrc": "/img/tweets/G7wvaaoXUAANgVt.jpg",
        "imgId": "G7wvaaoXUAANgVt",
        "lat": -31.406302,
        "lon": -61.991956
    },
    {
        "imgSrc": "https://pbs.twimg.com/media/G7xiVOVaMAMrNAp?format=jpg&name=small",
        "ciudad": "La Playa",
        "departamento": "Minas",
        "provincia": "Córdoba",
        "newSrc": "/img/tweets/G7xiVOVaMAMrNAp.jpg",
        "imgId": "G7xiVOVaMAMrNAp",
        "lat": -31.009669,
        "lon": -65.361267
    },
    {
        "imgSrc": "https://pbs.twimg.com/media/G7vfOumaMAUlsOZ?format=jpg&name=small",
        "ciudad": "Balneario San Cayetano",
        "departamento": "San Cayetano",
        "provincia": "Buenos Aires",
        "newSrc": "/img/tweets/G7vfOumaMAUlsOZ.jpg",
        "imgId": "G7vfOumaMAUlsOZ",
        "lat": -38.748108,
        "lon": -59.43047
    },
    {
        "imgSrc": "https://pbs.twimg.com/media/G7vDGxTb0AA7L3r?format=jpg&name=small",
        "ciudad": "Gobernador Costa",
        "departamento": "Tehuelches",
        "provincia": "Chubut",
        "newSrc": "/img/tweets/G7vDGxTb0AA7L3r.jpg",
        "imgId": "G7vDGxTb0AA7L3r",
        "lat": -44.048707,
        "lon": -70.599024
    },
    {
        "imgSrc": "https://pbs.twimg.com/media/G7uuTW3XYAA2gd4?format=jpg&name=small",
        "ciudad": "Medellín",
        "departamento": "Atamisqui",
        "provincia": "Santiago del Estero",
        "newSrc": "/img/tweets/G7uuTW3XYAA2gd4.jpg",
        "imgId": "G7uuTW3XYAA2gd4",
        "lat": -28.652341,
        "lon": -63.785507
    },
    {
        "imgSrc": "https://pbs.twimg.com/media/G7uMC_IWcAAxJUi?format=jpg&name=small",
        "ciudad": "Mariano Benítez",
        "departamento": "Pergamino",
        "provincia": "Buenos Aires",
        "newSrc": "/img/tweets/G7uMC_IWcAAxJUi.jpg",
        "imgId": "G7uMC_IWcAAxJUi",
        "lat": -33.707847,
        "lon": -60.583422
    },
    {
        "imgSrc": "https://pbs.twimg.com/media/G7txiwnXcAARhzX?format=jpg&name=small",
        "ciudad": "Santa Sylvina",
        "departamento": "Fray Justo Santa María de Oro",
        "provincia": "Chaco",
        "newSrc": "/img/tweets/G7txiwnXcAARhzX.jpg",
        "imgId": "G7txiwnXcAARhzX",
        "lat": -27.831611,
        "lon": -61.136
    },
    {
        "imgSrc": "https://pbs.twimg.com/media/G7tWQaMX0AAiVpC?format=jpg&name=small",
        "ciudad": "Aarón Castellanos",
        "departamento": "General López",
        "provincia": "Santa Fe",
        "newSrc": "/img/tweets/G7tWQaMX0AAiVpC.jpg",
        "imgId": "G7tWQaMX0AAiVpC",
        "lat": -34.332786,
        "lon": -62.374082
    },
    {
        "imgSrc": "https://pbs.twimg.com/media/G7s5qqIWcAA4o3f?format=jpg&name=small",
        "ciudad": "Barrio Intendencia",
        "departamento": "San Rafael",
        "provincia": "Mendoza",
        "newSrc": "/img/tweets/G7s5qqIWcAA4o3f.jpg",
        "imgId": "G7s5qqIWcAA4o3f",
        "lat": -34.646869,
        "lon": -68.264991
    },
    {
        "imgSrc": "https://pbs.twimg.com/media/G7spbSrXgAAVCPp?format=jpg&name=small",
        "ciudad": "Juan José Castelli",
        "departamento": "General Güemes",
        "provincia": "Chaco",
        "newSrc": "/img/tweets/G7spbSrXgAAVCPp.jpg",
        "imgId": "G7spbSrXgAAVCPp",
        "lat": -25.946579,
        "lon": -60.620067
    },
    {
        "imgSrc": "https://pbs.twimg.com/media/G7sYEa0WkAEu_fs?format=jpg&name=small",
        "ciudad": "Quines",
        "departamento": "Ayacucho",
        "provincia": "San Luis",
        "newSrc": "/img/tweets/G7sYEa0WkAEu_fs.jpg",
        "imgId": "G7sYEa0WkAEu_fs",
        "lat": -32.232856,
        "lon": -65.805037
    },
    {
        "imgSrc": "https://pbs.twimg.com/media/G7rmKdmXIAAy4YU?format=jpg&name=small",
        "ciudad": "Barrio La Unión",
        "departamento": "El Carmen",
        "provincia": "Jujuy",
        "newSrc": "/img/tweets/G7rmKdmXIAAy4YU.jpg",
        "imgId": "G7rmKdmXIAAy4YU",
        "lat": -24.404732,
        "lon": -65.070459
    },
    {
        "imgSrc": "https://pbs.twimg.com/media/G7rLBp3XcAA5MRF?format=jpg&name=small",
        "ciudad": "Mamuel Choique",
        "departamento": "Ñorquinco",
        "provincia": "Río Negro",
        "newSrc": "/img/tweets/G7rLBp3XcAA5MRF.jpg",
        "imgId": "G7rLBp3XcAA5MRF",
        "lat": -41.772465,
        "lon": -70.138071
    },
    {
        "imgSrc": "https://pbs.twimg.com/media/G7qwzeiW4AAJzxs?format=jpg&name=small",
        "ciudad": "Las Palmitas",
        "departamento": "La Paz",
        "provincia": "Santiago del Estero",
        "newSrc": "/img/tweets/G7qwzeiW4AAJzxs.jpg",
        "imgId": "G7qwzeiW4AAJzxs",
        "lat": -28.637189,
        "lon": -64.986114
    },
    {
        "imgSrc": "https://pbs.twimg.com/media/G7qVqh3bcAA9rwf?format=jpg&name=small",
        "ciudad": "La Firmeza",
        "departamento": "Copo",
        "provincia": "Santiago del Estero",
        "newSrc": "/img/tweets/G7qVqh3bcAA9rwf.jpg",
        "imgId": "G7qVqh3bcAA9rwf",
        "lat": -25.973449,
        "lon": -63.121335
    },
    {
        "imgSrc": "https://pbs.twimg.com/media/G7p5MhHWsAAzvQp?format=jpg&name=small",
        "ciudad": "Cafferata",
        "departamento": "General López",
        "provincia": "Santa Fe",
        "newSrc": "/img/tweets/G7p5MhHWsAAzvQp.jpg",
        "imgId": "G7p5MhHWsAAzvQp",
        "lat": -33.439537,
        "lon": -62.086188
    },
    {
        "imgSrc": "https://pbs.twimg.com/media/G7pkbd_W4AABdEM?format=jpg&name=small",
        "ciudad": "Vedia",
        "departamento": "Leandro N. Alem",
        "provincia": "Buenos Aires",
        "newSrc": "/img/tweets/G7pkbd_W4AABdEM.jpg",
        "imgId": "G7pkbd_W4AABdEM",
        "lat": -34.497907,
        "lon": -61.542311
    },
    {
        "imgSrc": "https://pbs.twimg.com/media/G7pCeMDbcAApNx6?format=jpg&name=small",
        "ciudad": "Alto Río Senguer",
        "departamento": "Río Senguer",
        "provincia": "Chubut",
        "newSrc": "/img/tweets/G7pCeMDbcAApNx6.jpg",
        "imgId": "G7pCeMDbcAApNx6",
        "lat": -45.041882,
        "lon": -70.823384
    },
    {
        "imgSrc": "https://pbs.twimg.com/media/G7ooGwXXEAAORW8?format=jpg&name=small",
        "ciudad": "Santa María",
        "departamento": "Santa María",
        "provincia": "Catamarca",
        "newSrc": "/img/tweets/G7ooGwXXEAAORW8.jpg",
        "imgId": "G7ooGwXXEAAORW8",
        "lat": -26.694525,
        "lon": -66.047967
    },
    {
        "imgSrc": "https://pbs.twimg.com/media/G7oNL10XIAAMpkt?format=jpg&name=small",
        "ciudad": "Fracrán",
        "departamento": "Guaraní",
        "provincia": "Misiones",
        "newSrc": "/img/tweets/G7oNL10XIAAMpkt.jpg",
        "imgId": "G7oNL10XIAAMpkt",
        "lat": -26.743432,
        "lon": -54.297454
    },
    {
        "imgSrc": "https://pbs.twimg.com/media/G7nxBzBaQAAPwLa?format=jpg&name=small",
        "ciudad": "Embajador Martini",
        "departamento": "Realicó",
        "provincia": "La Pampa",
        "newSrc": "/img/tweets/G7nxBzBaQAAPwLa.jpg",
        "imgId": "G7nxBzBaQAAPwLa",
        "lat": -35.387348,
        "lon": -64.282767
    },
    {
        "imgSrc": "https://pbs.twimg.com/media/G7nguOyWwAA6fnU?format=jpg&name=small",
        "ciudad": "La Florida",
        "departamento": "Cruz Alta",
        "provincia": "Tucumán",
        "newSrc": "/img/tweets/G7nguOyWwAA6fnU.jpg",
        "imgId": "G7nguOyWwAA6fnU",
        "lat": -26.820713,
        "lon": -65.095386
    },
    {
        "imgSrc": "https://pbs.twimg.com/media/G7nOzZIWwAARTF6?format=jpg&name=small",
        "ciudad": "El Alcázar",
        "departamento": "Libertador General San Martín",
        "provincia": "Misiones",
        "newSrc": "/img/tweets/G7nOzZIWwAARTF6.jpg",
        "imgId": "G7nOzZIWwAARTF6",
        "lat": -26.713647,
        "lon": -54.814048
    },
    {
        "imgSrc": "https://pbs.twimg.com/media/G7mb_atXgAEdUfA?format=jpg&name=small",
        "ciudad": "Argentina",
        "departamento": "Aguirre",
        "provincia": "Santiago del Estero",
        "newSrc": "/img/tweets/G7mb_atXgAEdUfA.jpg",
        "imgId": "G7mb_atXgAEdUfA",
        "lat": -29.534711,
        "lon": -62.26714
    },
    {
        "imgSrc": "https://pbs.twimg.com/media/G7mAg_YWUAAJkUg?format=jpg&name=small",
        "ciudad": "Laguna Yema",
        "departamento": "Bermejo",
        "provincia": "Formosa",
        "newSrc": "/img/tweets/G7mAg_YWUAAJkUg.jpg",
        "imgId": "G7mAg_YWUAAJkUg",
        "lat": -24.255525,
        "lon": -61.241985
    },
    {
        "imgSrc": "https://pbs.twimg.com/media/G7lmSxTXIAALz-4?format=jpg&name=small",
        "ciudad": "Estación Torrent",
        "departamento": "General Alvear",
        "provincia": "Corrientes",
        "newSrc": "/img/tweets/G7lmSxTXIAALz-4.jpg",
        "imgId": "G7lmSxTXIAALz-4",
        "lat": -28.824361,
        "lon": -56.469217
    },
    {
        "imgSrc": "https://pbs.twimg.com/media/G7lKU5ya0AAvRCj?format=jpg&name=small",
        "ciudad": "Huanguelén",
        "departamento": "Coronel Suárez",
        "provincia": "Buenos Aires",
        "newSrc": "/img/tweets/G7lKU5ya0AAvRCj.jpg",
        "imgId": "G7lKU5ya0AAvRCj",
        "lat": -37.058875,
        "lon": -61.932541
    },
    {
        "imgSrc": "https://pbs.twimg.com/media/G7kuHh1XgAAl-0O?format=jpg&name=small",
        "ciudad": "Hortensia",
        "departamento": "Carlos Casares",
        "provincia": "Buenos Aires",
        "newSrc": "/img/tweets/G7kuHh1XgAAl-0O.jpg",
        "imgId": "G7kuHh1XgAAl-0O",
        "lat": -35.924233,
        "lon": -61.262851
    },
    {
        "imgSrc": "https://pbs.twimg.com/media/G7kXPpbbEAAhh2U?format=jpg&name=small",
        "ciudad": "Barrio Calle Ciega Nº 10",
        "departamento": "General Roca",
        "provincia": "Río Negro",
        "newSrc": "/img/tweets/G7kXPpbbEAAhh2U.jpg",
        "imgId": "G7kXPpbbEAAhh2U",
        "lat": -39.02228,
        "lon": -67.803418
    },
    {
        "imgSrc": "https://pbs.twimg.com/media/G7j3Hf0WgAAbxRi?format=jpg&name=small",
        "ciudad": "Cachi",
        "departamento": "Cachi",
        "provincia": "Salta",
        "newSrc": "/img/tweets/G7j3Hf0WgAAbxRi.jpg",
        "imgId": "G7j3Hf0WgAAbxRi",
        "lat": -25.119968,
        "lon": -66.161876
    },
    {
        "imgSrc": "https://pbs.twimg.com/media/G7jchRtboAA-eKZ?format=jpg&name=small",
        "ciudad": "Bañado de Ovanta",
        "departamento": "Santa Rosa",
        "provincia": "Catamarca",
        "newSrc": "/img/tweets/G7jchRtboAA-eKZ.jpg",
        "imgId": "G7jchRtboAA-eKZ",
        "lat": -28.106287,
        "lon": -65.319257
    },
    {
        "imgSrc": "https://pbs.twimg.com/media/G7jB1R1XoAAXmEl?format=jpg&name=small",
        "ciudad": "Barrio El Nevado",
        "departamento": "San Rafael",
        "provincia": "Mendoza",
        "newSrc": "/img/tweets/G7jB1R1XoAAXmEl.jpg",
        "imgId": "G7jB1R1XoAAXmEl",
        "lat": -34.788137,
        "lon": -67.979998
    },
    {
        "imgSrc": "https://pbs.twimg.com/media/G7imw6DXwAA49z8?format=jpg&name=small",
        "ciudad": "Cruz Caña",
        "departamento": "San Javier",
        "provincia": "Córdoba",
        "newSrc": "/img/tweets/G7imw6DXwAA49z8.jpg",
        "imgId": "G7imw6DXwAA49z8",
        "lat": -32.278274,
        "lon": -65.030236
    },
    {
        "imgSrc": "https://pbs.twimg.com/media/G7iXsZqXEAAA3wQ?format=jpg&name=small",
        "ciudad": "General Pirán",
        "departamento": "Mar Chiquita",
        "provincia": "Buenos Aires",
        "newSrc": "/img/tweets/G7iXsZqXEAAA3wQ.jpg",
        "imgId": "G7iXsZqXEAAA3wQ",
        "lat": -37.275974,
        "lon": -57.774197
    },
    {
        "imgSrc": "https://pbs.twimg.com/media/G7iHHNOWUAA-UGa?format=jpg&name=small",
        "ciudad": "Olivares de San Nicolás",
        "departamento": "Ischilín",
        "provincia": "Córdoba",
        "newSrc": "/img/tweets/G7iHHNOWUAA-UGa.jpg",
        "imgId": "G7iHHNOWUAA-UGa",
        "lat": -30.601226,
        "lon": -64.855606
    },
    {
        "imgSrc": "https://pbs.twimg.com/media/G7hSeLCbIAAqgyK?format=jpg&name=small",
        "ciudad": "Jacipunco",
        "departamento": "Belén",
        "provincia": "Catamarca",
        "newSrc": "/img/tweets/G7hSeLCbIAAqgyK.jpg",
        "imgId": "G7hSeLCbIAAqgyK",
        "lat": -27.242435,
        "lon": -67.008351
    },
    {
        "imgSrc": "https://pbs.twimg.com/media/G7g27WQXcAAo7hJ?format=jpg&name=small",
        "ciudad": "La Sarita",
        "departamento": "General Obligado",
        "provincia": "Santa Fe",
        "newSrc": "/img/tweets/G7g27WQXcAAo7hJ.jpg",
        "imgId": "G7g27WQXcAAo7hJ",
        "lat": -28.972829,
        "lon": -59.848837
    },
    {
        "imgSrc": "https://pbs.twimg.com/media/G7gczJWaYAAWCe-?format=jpg&name=small",
        "ciudad": "Ingeniero Foster",
        "departamento": "Rancul",
        "provincia": "La Pampa",
        "newSrc": "/img/tweets/G7gczJWaYAAWCe-.jpg",
        "imgId": "G7gczJWaYAAWCe-",
        "lat": -35.703461,
        "lon": -65.102968
    },
    {
        "imgSrc": "https://pbs.twimg.com/media/G7gAzFqbwAITrOw?format=jpg&name=small",
        "ciudad": "San Juan",
        "departamento": "Capital",
        "provincia": "San Juan",
        "newSrc": "/img/tweets/G7gAzFqbwAITrOw.jpg",
        "imgId": "G7gAzFqbwAITrOw",
        "lat": -31.537259,
        "lon": -68.525017
    },
    {
        "imgSrc": "https://pbs.twimg.com/media/G7fkb-oWAAALGtc?format=jpg&name=small",
        "ciudad": "Villa Domínguez",
        "departamento": "Villaguay",
        "provincia": "Entre Ríos",
        "newSrc": "/img/tweets/G7fkb-oWAAALGtc.jpg",
        "imgId": "G7fkb-oWAAALGtc",
        "lat": -31.986289,
        "lon": -58.961533
    },
    {
        "imgSrc": "https://pbs.twimg.com/media/G7fN5JuXIAANujh?format=jpg&name=small",
        "ciudad": "Pastor Britos",
        "departamento": "Gualeguaychú",
        "provincia": "Entre Ríos",
        "newSrc": "/img/tweets/G7fN5JuXIAANujh.jpg",
        "imgId": "G7fN5JuXIAANujh",
        "lat": -32.770237,
        "lon": -58.906294
    },
    {
        "imgSrc": "https://pbs.twimg.com/media/G7etz2xWYAAPeKl?format=jpg&name=small",
        "ciudad": "Roberto Cano",
        "departamento": "Rojas",
        "provincia": "Buenos Aires",
        "newSrc": "/img/tweets/G7etz2xWYAAPeKl.jpg",
        "imgId": "G7etz2xWYAAPeKl",
        "lat": -34.087719,
        "lon": -60.66768
    },
    {
        "imgSrc": "https://pbs.twimg.com/media/G7eTVm7bwAAhCCZ?format=jpg&name=small",
        "ciudad": "Pérez Millán",
        "departamento": "Ramallo",
        "provincia": "Buenos Aires",
        "newSrc": "/img/tweets/G7eTVm7bwAAhCCZ.jpg",
        "imgId": "G7eTVm7bwAAhCCZ",
        "lat": -33.770194,
        "lon": -60.093741
    },
    {
        "imgSrc": "https://pbs.twimg.com/media/G7d4VfYb0AQAkii?format=jpg&name=small",
        "ciudad": "Ñirihuau",
        "departamento": "Pilcaniyeu",
        "provincia": "Río Negro",
        "newSrc": "/img/tweets/G7d4VfYb0AQAkii.jpg",
        "imgId": "G7d4VfYb0AQAkii",
        "lat": -41.087387,
        "lon": -71.141785
    },
    {
        "imgSrc": "https://pbs.twimg.com/media/G7dbvZ4WUAA89Tm?format=jpg&name=small",
        "ciudad": "Casa Grande",
        "departamento": "Punilla",
        "provincia": "Córdoba",
        "newSrc": "/img/tweets/G7dbvZ4WUAA89Tm.jpg",
        "imgId": "G7dbvZ4WUAA89Tm",
        "lat": -31.152842,
        "lon": -64.473455
    },
    {
        "imgSrc": "https://pbs.twimg.com/media/G7dKvVeboAABCLg?format=jpg&name=small",
        "ciudad": "Santa María de Punilla",
        "departamento": "Punilla",
        "provincia": "Córdoba",
        "newSrc": "/img/tweets/G7dKvVeboAABCLg.jpg",
        "imgId": "G7dKvVeboAABCLg",
        "lat": -31.275638,
        "lon": -64.463627
    },
    {
        "imgSrc": "https://pbs.twimg.com/media/G7c5ysqW4AAFpZP?format=jpg&name=small",
        "ciudad": "Villa Dominguito",
        "departamento": "San Martín",
        "provincia": "San Juan",
        "newSrc": "/img/tweets/G7c5ysqW4AAFpZP.jpg",
        "imgId": "G7c5ysqW4AAFpZP",
        "lat": -31.559162,
        "lon": -68.300502
    },
    {
        "imgSrc": "https://pbs.twimg.com/media/G7cI4fDaMAA3D5U?format=jpg&name=small",
        "ciudad": "Carrenleufú",
        "departamento": "Languiñeo",
        "provincia": "Chubut",
        "newSrc": "/img/tweets/G7cI4fDaMAA3D5U.jpg",
        "imgId": "G7cI4fDaMAA3D5U",
        "lat": -43.587898,
        "lon": -71.702135
    },
    {
        "imgSrc": "https://pbs.twimg.com/media/G7bt70EWsAACwyX?format=jpg&name=small",
        "ciudad": "Playas Doradas",
        "departamento": "San Antonio",
        "provincia": "Río Negro",
        "newSrc": "/img/tweets/G7bt70EWsAACwyX.jpg",
        "imgId": "G7bt70EWsAACwyX",
        "lat": -41.631138,
        "lon": -65.026597
    },
    {
        "imgSrc": "https://pbs.twimg.com/media/G7bTqbnW0AEe58c?format=jpg&name=small",
        "ciudad": "San Ramón de la Nueva Orán",
        "departamento": "Orán",
        "provincia": "Salta",
        "newSrc": "/img/tweets/G7bTqbnW0AEe58c.jpg",
        "imgId": "G7bTqbnW0AEe58c",
        "lat": -23.136089,
        "lon": -64.322927
    },
    {
        "imgSrc": "https://pbs.twimg.com/media/G7a4bwdWAAAi4GG?format=jpg&name=small",
        "ciudad": "Capitán Castro",
        "departamento": "Pehuajó",
        "provincia": "Buenos Aires",
        "newSrc": "/img/tweets/G7a4bwdWAAAi4GG.jpg",
        "imgId": "G7a4bwdWAAAi4GG",
        "lat": -35.912408,
        "lon": -62.224228
    },
    {
        "imgSrc": "https://pbs.twimg.com/media/G7abzRZb0AEshW4?format=jpg&name=small",
        "ciudad": "Tedín Uriburu",
        "departamento": "Benito Juárez",
        "provincia": "Buenos Aires",
        "newSrc": "/img/tweets/G7abzRZb0AEshW4.jpg",
        "imgId": "G7abzRZb0AEshW4",
        "lat": -37.364272,
        "lon": -59.760203
    },
    {
        "imgSrc": "https://pbs.twimg.com/media/G7aFeXQWkAAswg1?format=jpg&name=small",
        "ciudad": "Empedrado",
        "departamento": "Empedrado",
        "provincia": "Corrientes",
        "newSrc": "/img/tweets/G7aFeXQWkAAswg1.jpg",
        "imgId": "G7aFeXQWkAAswg1",
        "lat": -27.950703,
        "lon": -58.803095
    },
    {
        "imgSrc": "https://pbs.twimg.com/media/G7ZlAEUXMAAIaSm?format=jpg&name=small",
        "ciudad": "Paraje La Agraria",
        "departamento": "Junín",
        "provincia": "Buenos Aires",
        "newSrc": "/img/tweets/G7ZlAEUXMAAIaSm.jpg",
        "imgId": "G7ZlAEUXMAAIaSm",
        "lat": -34.657278,
        "lon": -60.848532
    },
    {
        "imgSrc": "https://pbs.twimg.com/media/G7ZKuX0WkAAj6AT?format=jpg&name=small",
        "ciudad": "7 de Abril",
        "departamento": "Burruyacú",
        "provincia": "Tucumán",
        "newSrc": "/img/tweets/G7ZKuX0WkAAj6AT.jpg",
        "imgId": "G7ZKuX0WkAAj6AT",
        "lat": -26.288189,
        "lon": -64.501376
    },
    {
        "imgSrc": "https://pbs.twimg.com/media/G7YvycbWQAAvzNz?format=jpg&name=small",
        "ciudad": "Campo Grande",
        "departamento": "Cainguás",
        "provincia": "Misiones",
        "newSrc": "/img/tweets/G7YvycbWQAAvzNz.jpg",
        "imgId": "G7YvycbWQAAvzNz",
        "lat": -27.207959,
        "lon": -54.979702
    },
    {
        "imgSrc": "https://pbs.twimg.com/media/G7YTe7VasAArcl-?format=jpg&name=small",
        "ciudad": "Ingeniero Moneta",
        "departamento": "San Pedro",
        "provincia": "Buenos Aires",
        "newSrc": "/img/tweets/G7YTe7VasAArcl-.jpg",
        "imgId": "G7YTe7VasAArcl-",
        "lat": -33.93069,
        "lon": -59.749459
    },
    {
        "imgSrc": "https://pbs.twimg.com/media/G7YDIsUacAAMPA3?format=jpg&name=small",
        "ciudad": "Alto Alegre",
        "departamento": "Unión",
        "provincia": "Córdoba",
        "newSrc": "/img/tweets/G7YDIsUacAAMPA3.jpg",
        "imgId": "G7YDIsUacAAMPA3",
        "lat": -32.344689,
        "lon": -62.884914
    },
    {
        "imgSrc": "https://pbs.twimg.com/media/G7Xx2nOb0AAdsD0?format=jpg&name=small",
        "ciudad": "Nueva Escocia",
        "departamento": "Concordia",
        "provincia": "Entre Ríos",
        "newSrc": "/img/tweets/G7Xx2nOb0AAdsD0.jpg",
        "imgId": "G7Xx2nOb0AAdsD0",
        "lat": -31.649617,
        "lon": -58.016336
    },
    {
        "imgSrc": "https://pbs.twimg.com/media/G7W_c2zbYAAMPVr?format=jpg&name=small",
        "ciudad": "Cortaderas",
        "departamento": "Chacabuco",
        "provincia": "San Luis",
        "newSrc": "/img/tweets/G7W_c2zbYAAMPVr.jpg",
        "imgId": "G7W_c2zbYAAMPVr",
        "lat": -32.505258,
        "lon": -64.992153
    },
    {
        "imgSrc": "https://pbs.twimg.com/media/G7WkydOWYAAvOLg?format=jpg&name=small",
        "ciudad": "Todd",
        "departamento": "Arrecifes",
        "provincia": "Buenos Aires",
        "newSrc": "/img/tweets/G7WkydOWYAAvOLg.jpg",
        "imgId": "G7WkydOWYAAvOLg",
        "lat": -34.033554,
        "lon": -60.155271
    },
    {
        "imgSrc": "https://pbs.twimg.com/media/G7WLKjYb0AILaO_?format=jpg&name=small",
        "ciudad": "Esquel",
        "departamento": "Futaleufú",
        "provincia": "Chubut",
        "newSrc": "/img/tweets/G7WLKjYb0AILaO_.jpg",
        "imgId": "G7WLKjYb0AILaO_",
        "lat": -42.917321,
        "lon": -71.321573
    },
    {
        "imgSrc": "https://pbs.twimg.com/media/G7VvqvQWYAAl6aD?format=jpg&name=small",
        "ciudad": "Hernán Mejía Miraval",
        "departamento": "Moreno",
        "provincia": "Santiago del Estero",
        "newSrc": "/img/tweets/G7VvqvQWYAAl6aD.jpg",
        "imgId": "G7VvqvQWYAAl6aD",
        "lat": -27.177184,
        "lon": -62.46965
    },
    {
        "imgSrc": "https://pbs.twimg.com/media/G7VS_umbgAEUpLo?format=jpg&name=small",
        "ciudad": "Aldea Brasilera",
        "departamento": "Diamante",
        "provincia": "Entre Ríos",
        "newSrc": "/img/tweets/G7VS_umbgAEUpLo.jpg",
        "imgId": "G7VS_umbgAEUpLo",
        "lat": -31.889833,
        "lon": -60.590793
    },
    {
        "imgSrc": "https://pbs.twimg.com/media/G7U-XS9WMAAp_U_?format=jpg&name=small",
        "ciudad": "Estación Saguier",
        "departamento": "Castellanos",
        "provincia": "Santa Fe",
        "newSrc": "/img/tweets/G7U-XS9WMAAp_U_.jpg",
        "imgId": "G7U-XS9WMAAp_U_",
        "lat": -31.316273,
        "lon": -61.696209
    },
    {
        "imgSrc": "https://pbs.twimg.com/media/G7UcIasXYAA58R9?format=jpg&name=small",
        "ciudad": "Anillaco",
        "departamento": "Castro Barros",
        "provincia": "La Rioja",
        "newSrc": "/img/tweets/G7UcIasXYAA58R9.jpg",
        "imgId": "G7UcIasXYAA58R9",
        "lat": -28.806532,
        "lon": -66.941382
    },
    {
        "imgSrc": "https://pbs.twimg.com/media/G7UBVaoXkAApInv?format=jpg&name=small",
        "ciudad": "Contralmirante Cordero",
        "departamento": "General Roca",
        "provincia": "Río Negro",
        "newSrc": "/img/tweets/G7UBVaoXkAApInv.jpg",
        "imgId": "G7UBVaoXkAApInv",
        "lat": -38.757742,
        "lon": -68.099668
    },
    {
        "imgSrc": "https://pbs.twimg.com/media/G7TmNHyagAA4AC2?format=jpg&name=small",
        "ciudad": "Collagasta",
        "departamento": "Fray Mamerto Esquiú",
        "provincia": "Catamarca",
        "newSrc": "/img/tweets/G7TmNHyagAA4AC2.jpg",
        "imgId": "G7TmNHyagAA4AC2",
        "lat": -28.347753,
        "lon": -65.718676
    },
    {
        "imgSrc": "https://pbs.twimg.com/media/G7TJ_G4WsAAnk8Z?format=jpg&name=small",
        "ciudad": "Argentina",
        "departamento": "Aguirre",
        "provincia": "Santiago del Estero",
        "newSrc": "/img/tweets/G7TJ_G4WsAAnk8Z.jpg",
        "imgId": "G7TJ_G4WsAAnk8Z",
        "lat": -29.534711,
        "lon": -62.26714
    },
    {
        "imgSrc": "https://pbs.twimg.com/media/G7S5zapb0AA4MgK?format=jpg&name=small",
        "ciudad": "Pueblo Esther",
        "departamento": "Rosario",
        "provincia": "Santa Fe",
        "newSrc": "/img/tweets/G7S5zapb0AA4MgK.jpg",
        "imgId": "G7S5zapb0AA4MgK",
        "lat": -33.072293,
        "lon": -60.574994
    },
    {
        "imgSrc": "https://pbs.twimg.com/media/G7SoJ9zWsAAZp23?format=jpg&name=small",
        "ciudad": "Sagrada Familia",
        "departamento": "Río Primero",
        "provincia": "Córdoba",
        "newSrc": "/img/tweets/G7SoJ9zWsAAZp23.jpg",
        "imgId": "G7SoJ9zWsAAZp23",
        "lat": -31.289327,
        "lon": -63.445433
    },
    {
        "imgSrc": "https://pbs.twimg.com/media/G7R2PxeXoAASen2?format=jpg&name=small",
        "ciudad": "Octavio Pico",
        "departamento": "Pehuenches",
        "provincia": "Neuquén",
        "newSrc": "/img/tweets/G7R2PxeXoAASen2.jpg",
        "imgId": "G7R2PxeXoAASen2",
        "lat": -37.589626,
        "lon": -68.258276
    },
    {
        "imgSrc": "https://pbs.twimg.com/media/G7RbR2Qa0AAHePO?format=jpg&name=small",
        "ciudad": "Lavalle",
        "departamento": "Santa Rosa",
        "provincia": "Catamarca",
        "newSrc": "/img/tweets/G7RbR2Qa0AAHePO.jpg",
        "imgId": "G7RbR2Qa0AAHePO",
        "lat": -28.19503,
        "lon": -65.114335
    },
    {
        "imgSrc": "https://pbs.twimg.com/media/G7RBdLKbQAATmuh?format=jpg&name=small",
        "ciudad": "Lules",
        "departamento": "Lules",
        "provincia": "Tucumán",
        "newSrc": "/img/tweets/G7RBdLKbQAATmuh.jpg",
        "imgId": "G7RBdLKbQAATmuh",
        "lat": -26.922184,
        "lon": -65.337716
    },
    {
        "imgSrc": "https://pbs.twimg.com/media/G7QmHr6XsAEHxi5?format=jpg&name=small",
        "ciudad": "Las Avispas",
        "departamento": "San Cristóbal",
        "provincia": "Santa Fe",
        "newSrc": "/img/tweets/G7QmHr6XsAEHxi5.jpg",
        "imgId": "G7QmHr6XsAEHxi5",
        "lat": -29.896417,
        "lon": -61.288067
    },